id	$admin	$island	$country	cityclass	popest	long	lat	$name
1	 	Nggamea	Fiji	5	-1	-179.989304	-16.789749	Waiyevo
2	 	Nggamea	Fiji	5	-1	-179.967407	-16.772779	Somosomo
3	 	Thikombia Island	Fiji	5	-1	-179.903702	-15.75942	Nalele
4	 	Nggamea	Fiji	5	-1	-179.859802	-16.817051	Mboma
5	 	Nggamea	Fiji	5	-1	-179.842102	-16.770639	Qeleni
6	Chukotskiy	 	Russia	5	-1	-179.696899	65.147423	Meynynytum
7	Chukotskiy	 	Russia	5	-1	-179.639893	70.941971	Zvezdnyy
8	Chukotskiy	 	Russia	5	-1	-179.511872	65.391864	Koynergyrgyn
9	Chukotskiy	 	Russia	5	-1	-179.502701	68.909081	Ryrkaypiy
10	Chukotskiy	 	Russia	5	653	-179.431107	68.884216	Mys Shmidta
11	Chukotskiy	 	Russia	5	-1	-179.315704	65.519417	Uelkal
12	Chukotskiy	 	Russia	5	-1	-179.310501	65.621849	Annyualkal
13	Chukotskiy	 	Russia	6	-1	-179.283333	66.333333	Utvuren-Vuk
14	 	Vanua Vatu	Fiji	6	-1	-179.266667	-18.366667	Vanuavatu
15	Chukotskiy	 	Russia	4	2247	-179.130493	66.317589	Egvekinot
16	 	Nayau	Fiji	6	-1	-179.05	-18	Liku
17	Chukotskiy	 	Russia	5	-1	-179.001253	66.179083	Olovyannaya
18	Chukotskiy	 	Russia	5	-1	-178.839761	65.896818	Konergino
19	Chukotskiy	 	Russia	5	-1	-178.826084	65.969414	Rene
20	 	Tuvutha	Fiji	6	-1	-178.816667	-17.683333	Tuvutha
21	 	Lakemba	Fiji	6	-1	-178.8	-18.233333	Levuka
22	 	 	Fiji	6	-1	-178.783333	-17.283333	Thikombia
23	 	Namuka Llau	Fiji	6	-1	-178.633333	-18.85	Namuka
24	 	Fulanga	Fiji	6	-1	-178.583333	-19.15	Monothaki
25	Chukotskiy	 	Russia	5	-1	-178.524457	65.513616	Nutapenman
26	Chukotskiy	 	Russia	6	-1	-178.5	65.783333	Kenezrgin
27	Chukotskiy	 	Russia	6	-1	-178.5	68.583333	Tenkergin
28	Chukotskiy	 	Russia	5	-1	-178.484497	70.994797	Ushakovskiy
29	Chukotskiy	 	Russia	5	-1	-178.443801	65.606279	Yegitun
30	Chukotskiy	 	Russia	5	-1	-178.400983	65.711029	Kenegyrgyn
31	 	 	Fiji	6	-1	-178.4	-19.15	Ongea
32	Chukotskiy	 	Russia	5	-1	-178.254196	65.464821	Valkarkoy
33	 	Ile Futuna	Wallis and Futuna	5	476	-178.180603	-14.29701	Leava
34	 	Ile Futuna	Wallis and Futuna	5	-1	-178.123795	-14.32051	Alo
35	 	Iles de Horne	Wallis and Futuna	5	-1	-178.057907	-14.35049	Mua
36	Chukotskiy	 	Russia	5	-1	-177.791702	65.458511	Kyrgatyr
37	Chukotskiy	 	Russia	6	-1	-177.35	68.233333	Yulinu
38	Chukotskiy	 	Russia	5	-1	-177.269302	65.531197	Epran
39	Chukotskiy	 	Russia	6	-1	-177.016667	68.133333	Kepin
40	Alaska	Adak Island	United States	5	9266	-176.640278	51.8429	Adak Station
41	Chatham Islands	Chatham Islands	New Zealand	5	-1	-176.566193	-43.960011	Waitangi
42	Chatham Islands	Chatham Islands	New Zealand	5	-1	-176.345596	-44.039131	Owonga
43	Chukotskiy	 	Russia	5	-1	-176.20673	67.905907	Rigol
44	 	 	Wallis and Futuna	5	-1	-176.167999	-13.34512	Mua
45	 	 	Wallis and Futuna	1	972000	-176.143005	-13.27844	Mata-Utu
46	Chukotskiy	 	Russia	5	-1	-175.914009	65.414881	Neran
47	Chukotskiy	 	Russia	5	-1	-175.869797	67.831093	Vankarem
48	Chukotskiy	 	Russia	5	-1	-175.835297	65.006866	Enmelen
49	Chukotskiy	 	Russia	5	-1	-175.765282	65.045595	Valkalten
50	Chukotskiy	 	Russia	5	-1	-175.685938	67.754822	Kovlyuneskiy
51	 	 	Fiji	6	-1	-175.633333	-15.566667	Esia
52	Chukotskiy	 	Russia	5	-1	-175.563202	67.719421	Kaygipekun
53	Chukotskiy	 	Russia	5	-1	-175.512767	64.889552	Kuyveyem
54	Chukotskiy	 	Russia	5	-1	-175.4487	67.690201	Akanatkhyrgyn
55	Chukotskiy	 	Russia	5	-1	-175.4021	64.800873	Nunligran
56	Chukotskiy	 	Russia	5	-1	-175.368805	67.665878	Valvekvegen
57	 	Tongatapu Island	Tonga	5	-1	-175.337402	-21.11305	Foui
58	Chukotskiy	 	Russia	5	-1	-175.315201	67.59848	Velvykay
59	 	Tongatapu Island	Tonga	5	-1	-175.298401	-21.132021	Nukunuku
60	 	Tongatapu Island	Tonga	5	-1	-175.297806	-21.16906	Houma
61	Chukotskiy	 	Russia	5	-1	-175.292206	67.651047	Ilkhetan
62	 	Tongatapu Island	Tonga	5	-1	-175.234604	-21.17131	Pea
63	 	Tongatapu Island	Tonga	1	24110	-175.2164	-21.136009	Nuku'alofa
64	Chukotskiy	 	Russia	5	-1	-175.173435	67.504808	Pyngopilgyn
65	 	Tongatapu Island	Tonga	5	-1	-175.140305	-21.2619	Fuaamotu
66	 	Tongatapu Island	Tonga	5	-1	-175.119003	-21.18322	Mua
67	 	Tongatapu Island	Tonga	5	-1	-175.112198	-21.21034	Fatumu
68	 	Tongatapu Island	Tonga	5	-1	-175.082001	-21.13999	Kolonga
69	 	Tongatapu Island	Tonga	5	-1	-175.043396	-21.151979	Niutoua
70	 	Kallaul Island	Tonga	5	1236	-174.947495	-21.34292	Ohonua
71	Chukotskiy	 	Russia	5	-1	-174.945297	67.417679	Nutepelmen
72	Chukotskiy	 	Russia	5	-1	-174.607193	67.445793	Kolyuchino
73	Phoenix Islands	 	Kiribati	5	-1	-174.540207	-4.676223	Noriti
74	 	Lifuka Island	Tonga	5	1722	-174.354294	-19.81687	Pangai
75	Chukotskiy	 	Russia	6	-1	-174.233333	64.666667	Kurupka
76	Chukotskiy	 	Russia	5	-1	-174.222198	66.577026	Anayan
77	Alaska	Atka Island	United States	6	92	-174.205704	52.19035	Atka
78	Chukotskiy	 	Russia	5	-1	-174.145096	67.072487	Alyatki
79	Chukotskiy	 	Russia	6	-1	-174.05	64.55	Siginik
80	 	 	Tonga	5	4254	-173.984604	-18.649509	Neiafu
81	Chukotskiy	 	Russia	5	-1	-173.959138	64.41796	Sireniki
82	Chukotskiy	 	Russia	5	-1	-173.809494	67.067993	Toygunen
83	 	Niuatoputapu	Tonga	5	800	-173.757599	-15.96999	Hihifo
84	 	Niuatoputapu	Tonga	5	-1	-173.726898	-15.9494	Falehau
85	Chukotskiy	 	Russia	6	-1	-173.35	64.35	Plover
86	Chukotskiy	 	Russia	5	-1	-173.304596	64.291313	Avan
87	Chukotskiy	 	Russia	6	-1	-173.3	64.383333	Port Provideniya
88	Chukotskiy	 	Russia	4	2533	-173.245786	64.429675	Provideniya
89	Chukotskiy	 	Russia	5	-1	-173.216053	64.402845	Ureliki
90	Chukotskiy	 	Russia	5	-1	-173.213699	64.774048	Kalyarik
91	Chukotskiy	 	Russia	6	-1	-173.1	67.05	Chokkom
92	Chukotskiy	 	Russia	5	-1	-172.981293	67.036324	Neshkan
93	Chukotskiy	 	Russia	5	-1	-172.961304	64.266258	Kivak
94	Chukotskiy	 	Russia	6	-1	-172.95	64.5	Eporgelvin
95	Chukotskiy	 	Russia	5	-1	-172.943695	64.871262	Penkigney
96	Chukotskiy	 	Russia	5	-1	-172.913605	64.700577	Gilmimyl
97	Chukotskiy	 	Russia	5	-1	-172.874802	65.667709	Krasnaya Yaranga
98	Chukotskiy	 	Russia	6	-1	-172.85	64.366667	Chechen
99	 	 	Samoa	5	517	-172.784897	-13.49793	Falealupo
100	Chukotskiy	 	Russia	5	-1	-172.771606	67.001801	Memino
101	Chukotskiy	 	Russia	6	-1	-172.766667	67.033333	Idlidlya Tepken
102	 	 	Samoa	5	413	-172.714096	-13.58707	Falelima
103	Chukotskiy	 	Russia	5	-1	-172.6763	64.872017	Kurgan
104	 	 	Samoa	5	578	-172.595001	-13.70279	Salailua
105	Chukotskiy	 	Russia	5	-1	-172.519207	64.906186	Yanrakynnot
106	Chukotskiy	 	Russia	6	-1	-172.483333	64.516667	Siklyuk
107	 	 	Samoa	5	559	-172.440796	-13.46437	Sasina
108	 	 	Samoa	5	-1	-172.402206	-13.44656	Leagiaga
109	 	 	Samoa	5	170	-172.378494	-13.77036	Gautavai
110	 	 	Samoa	5	292	-172.348297	-13.43882	Fagamalo
111	Chukotskiy	 	Russia	5	-1	-172.329803	64.947273	Alyayevo
112	 	 	Samoa	5	-1	-172.300293	-13.74805	Satupaitea
113	Chukotskiy	 	Russia	5	-1	-172.266693	64.409569	Chaplino
114	Phoenix Islands	Hull Island	Kiribati	5	-1	-172.226303	-4.515975	Arariki
115	 	 	Samoa	5	519	-172.212296	-13.58723	Puapua
116	 	 	Samoa	5	-1	-172.209702	-13.72223	Salelologa
117	 	 	Samoa	5	358	-172.176697	-13.66209	Tuasivi
118	Chukotskiy	 	Russia	5	-1	-172.121245	65.456947	Mechigmen
119	 	Upolu	Samoa	5	932	-172.033203	-13.88971	Samatau
120	 	Upolu	Samoa	5	-1	-172.022095	-13.83861	Fuailalo
121	Chukotskiy	 	Russia	5	-1	-172.008301	65.47113	Raupelyan
122	Chukotskiy	 	Russia	6	-1	-171.983333	66.95	Enmitagen
123	 	Upolu	Samoa	5	-1	-171.973404	-13.82438	Fasitootai
124	 	Upolu	Samoa	5	-1	-171.962997	-13.9299	Faleaseela
125	Chukotskiy	 	Russia	6	-1	-171.916667	66.966667	Neten
126	 	Upolu	Samoa	5	202	-171.913498	-13.9904	Matautu
127	 	Upolu	Samoa	5	-1	-171.884705	-13.79847	Saleimoa
128	Chukotskiy	 	Russia	5	-1	-171.824997	66.945778	Enurmino
129	 	Upolu	Samoa	5	-1	-171.823286	-13.79109	Utuavanua
130	 	Upolu	Samoa	5	1112	-171.774994	-14.00264	Siumu
131	 	Upolu	Samoa	1	39813	-171.751801	-13.83142	Apia
132	Chukotskiy	 	Russia	5	-1	-171.725693	65.499321	Lorino
133	Alaska	 	United States	6	649	-171.725403	63.783791	Gambell
134	Chukotskiy	 	Russia	6	-1	-171.7	66.866667	Keniskhvik
135	 	Upolu	Samoa	5	374	-171.690201	-14.01831	Poutasi
136	 	Upolu	Samoa	5	1470	-171.632797	-13.87059	Solosolo
137	 	Upolu	Samoa	5	-1	-171.566498	-14.03488	Lotofago
138	Chukotskiy	 	Russia	6	-1	-171.516667	65.516667	Kukun
139	Chukotskiy	 	Russia	5	-1	-171.435898	66.768341	Seshan
140	 	Upolu	Samoa	5	218	-171.421707	-13.99126	Amaile
141	Chukotskiy	 	Russia	6	-1	-171.233333	66.616667	Utkan
142	Chukotskiy	 	Russia	5	-1	-171.173294	65.500496	Akkani
143	Chukotskiy	 	Russia	5	-1	-171.156494	66.577713	Chegitun
144	 	Swains Atoll	American Samoa	6	-1	-171.07227	-11.05217	Etena
145	Chukotskiy	 	Russia	5	-1	-171.047394	65.478729	Yandogay
146	Chukotskiy	 	Russia	5	1221	-171.038895	65.583549	Lavrentiya
147	Chukotskiy	 	Russia	5	-1	-171.007004	65.582451	Kytrytkyn
148	Chukotskiy	 	Russia	6	-1	-171	65.533333	Chulkhek
149	Chukotskiy	 	Russia	5	-1	-170.963501	66.515999	Chutpen
150	Chukotskiy	 	Russia	5	-1	-170.859032	65.623642	Pinakul
151	 	Tutuila	American Samoa	4	-1	-170.832778	-14.321667	Poloa
152	 	Tutuila	American Samoa	4	-1	-170.829444	-14.33	Amanave
153	 	Tutuila	American Samoa	4	-1	-170.810556	-14.330556	Seetaga
154	 	Tutuila	American Samoa	4	-1	-170.808889	-14.303611	Fagamalo
155	 	Tutuila	American Samoa	4	-1	-170.791111	-14.338333	Amaluia
156	 	Tutuila	American Samoa	5	3981	-170.783707	-14.34188	Leone
157	 	Tutuila	American Samoa	4	1136	-170.782222	-14.361111	Vailoatai
158	 	Tutuila	American Samoa	3	738	-170.773056	-14.360278	Taputimu
159	 	Tutuila	American Samoa	4	-1	-170.758333	-14.2975	Aasu
160	 	Tutuila	American Samoa	3	770	-170.754167	-14.353333	Futiga
161	 	Tutuila	American Samoa	4	-1	-170.750833	-14.340833	Pavaiai
162	 	Tutuila	American Samoa	5	1417	-170.747696	-14.32962	Vaitogi
163	 	Tutuila	American Samoa	4	-1	-170.746944	-14.351667	Iliili
164	 	Tutuila	American Samoa	3	550	-170.746944	-14.33	Mesepa
165	 	Tutuila	American Samoa	4	3142	-170.744444	-14.3325	Faleniu
166	 	Tutuila	American Samoa	3	901	-170.718611	-14.290833	Fagasa
167	 	Tutuila	American Samoa	1	4193	-170.700897	-14.27933	Pago Pago
168	 	Tutuila	American Samoa	4	-1	-170.698889	-14.275	Siufaga
169	 	Tutuila	American Samoa	4	-1	-170.6975	-14.315833	Nuuuli
170	 	Tutuila	American Samoa	4	1860	-170.690788	-14.284578	Fagatogo
171	 	Tutuila	American Samoa	4	-1	-170.684722	-14.274444	Atuu
172	 	Tutuila	American Samoa	3	671	-170.684369	-14.289107	Utulei
173	 	Tutuila	American Samoa	4	-1	-170.683889	-14.303611	Matuu
174	 	Tutuila	American Samoa	4	-1	-170.683611	-14.296389	Fagaalu
175	 	Tutuila	American Samoa	3	544	-170.678056	-14.272222	Leloaloa
176	 	Tutuila	American Samoa	4	2099	-170.663889	-14.276111	Aua
177	 	Tutuila	American Samoa	4	-1	-170.658889	-14.293611	Lauliifou
178	Chukotskiy	 	Russia	5	-1	-170.658401	65.605942	Nunyamo
179	 	Tutuila	American Samoa	3	524	-170.650833	-14.264167	Afono
180	Chukotskiy	 	Russia	5	-1	-170.637604	66.375671	Uten
181	 	Tutuila	American Samoa	4	-1	-170.630556	-14.259167	Masefau
182	 	Tutuila	American Samoa	4	-1	-170.626944	-14.283056	Auto
183	Chukotskiy	 	Russia	5	-1	-170.612595	66.352203	Enmytagyn
184	 	Tutuila	American Samoa	4	-1	-170.611944	-14.271944	Fagaitua
185	 	Tutuila	American Samoa	3	458	-170.602222	-14.279167	Alofau
186	Chukotskiy	 	Russia	5	-1	-170.587601	66.342178	Mitkulino
187	 	Tutuila	American Samoa	3	458	-170.583889	-14.265556	Aoa
188	 	Tutuila	American Samoa	3	496	-170.5825	-14.278056	Amouli
189	 	Tutuila	American Samoa	4	-1	-170.579722	-14.256667	Onenoa
190	 	Tutuila	American Samoa	3	500	-170.56698	-14.267827	Alao
191	 	Tutuila	American Samoa	3	367	-170.566355	-14.257844	Tula
192	 	Aunuu	American Samoa	4	-1	-170.559167	-14.288611	Aunuu
193	Chukotskiy	 	Russia	5	-1	-170.548904	65.684113	Chini
194	Chukotskiy	 	Russia	5	-1	-170.533739	65.846971	Pouten
195	Chukotskiy	 	Russia	5	-1	-170.509718	65.731887	Keyyekan
196	Alaska	 	United States	6	643	-170.4785	63.693218	Savoonga
197	Chukotskiy	 	Russia	5	-1	-170.389404	65.937767	Leymin
198	Chukotskiy	 	Russia	5	-1	-170.291397	66.296928	Inchoun
199	Alaska	St Paul Island	United States	6	532	-170.266098	57.117142	Saint Paul
200	Chukotskiy	 	Russia	5	-1	-170.253799	65.995201	Tunytlino
201	Alaska	St Paul Island	United States	5	-1	-170.097794	57.237759	Northeast Point
202	Chukotskiy	 	Russia	5	-1	-169.939194	66.050987	Dezhnevo
203	 	 	Niue	1	619	-169.923706	-19.05649	Alofi
204	 	 	Niue	5	121	-169.912292	-19.124729	Avatele
205	 	 	Niue	5	217	-169.844803	-19.12676	Hakupu
206	 	 	Niue	5	128	-169.827606	-18.96368	Mutalau
207	Chukotskiy	 	Russia	5	-1	-169.816786	66.158684	Uelen
208	 	 	Niue	5	85	-169.808105	-19.00934	Lakepa
209	 	 	Niue	5	70	-169.790207	-19.052259	Liku
210	Chukotskiy	 	Russia	5	-1	-169.757599	66.008614	Naukan
211	 	Ofu	American Samoa	4	-1	-169.677317	-14.17134	Alaufau
212	 	Olosega	American Samoa	4	-1	-169.621667	-14.170556	Lalomoana
213	 	Olosega	American Samoa	4	-1	-169.62145	-14.181285	Olosega
214	Alaska	 	United States	6	152	-169.537994	56.595661	Saint George
215	 	Tau	American Samoa	5	-1	-169.512405	-14.23226	Tau
216	 	Tau	American Samoa	4	-1	-169.509596	-14.226455	Faleasau
217	 	Tau	American Samoa	6	-1	-169.455	-14.21778	Faga
218	 	Tau	American Samoa	4	-1	-169.428333	-14.219444	Maia
219	 	Tau	American Samoa	5	-1	-169.423145	-14.22674	Leusoalii
220	Alaska	 	United States	5	-1	-169.388702	63.350361	Sooghmeghat
221	Chukotskiy	Big Diomede Island	Russia	6	-1	-169.083333	65.75	Nunarbuk'
222	Alaska	Diomede Islands	United States	6	146	-168.92195	65.763868	Diomede
223	Alaska	 	United States	6	39	-168.852005	52.932419	Nikolski
224	Alaska	 	United States	6	-1	-168.21667	53.26667	Umnak
225	Alaska	 	United States	6	-1	-168.107575	65.622688	Belmezok
226	Alaska	 	United States	6	152	-168.098067	65.609709	Wales
227	Alaska	 	United States	6	-1	-167.999495	53.554593	Egorkovskoi
228	Alaska	 	United States	5	-1	-167.960205	65.558998	Tin City
229	Alaska	 	United States	5	-1	-167.686096	65.492996	York
230	Alaska	 	United States	5	-1	-167.5569	65.809219	Mitletukeruk
231	Alaska	 	United States	4	-1	-167.55	53.408333	Chernofski
232	Alaska	 	United States	5	-1	-167.496094	65.424179	Cape York
233	Alaska	 	United States	5	-1	-167.280197	65.893547	Ikpek
234	Alaska	 	United States	6	-1	-167.152038	65.391914	Lost River
235	Alaska	 	United States	5	-1	-167.149796	53.463249	Kashega
236	Alaska	 	United States	5	-1	-166.995102	53.771049	Makushin
237	Alaska	 	United States	5	-1	-166.934351	60.196498	Nash Harbor
238	Alaska	 	United States	6	21	-166.84583	65.26222	Port Clarence
239	Alaska	 	United States	6	757	-166.816193	68.346718	Point hope
240	Alaska	 	United States	6	21	-166.773169	65.077074	Port Clarence
241	Alaska	 	United States	5	-1	-166.537399	53.892811	Dutch Harbor
242	Alaska	 	United States	5	4283	-166.528397	53.861309	Unalaska
243	Alaska	 	United States	6	276	-166.496597	65.334511	Brevig Mission
244	Alaska	 	United States	4	-1	-166.483333	65.333333	Teller Mission
245	Alaska	 	United States	5	-1	-166.452103	64.798691	Singigyak
246	Alaska	 	United States	6	268	-166.376284	65.254831	Teller
247	Alaska	 	United States	5	-1	-166.253587	64.594732	Sinuk
248	Alaska	 	United States	5	-1	-166.206406	53.819481	Biorka
249	Alaska	 	United States	6	210	-166.188582	60.38302	Mekoryuk
250	Alaska	 	United States	5	-1	-166.098602	68.86779	Wevok
251	Alaska	 	United States	5	1014	-166.084897	61.528326	Hooper Bay
252	Alaska	 	United States	6	562	-166.084	66.25219	Shishmaref
253	Alaska	 	United States	6	-1	-166.013267	66.261173	Cabins
254	Alaska	 	United States	6	-1	-165.93361	61.6175	Igiak
255	 	Pukapuka	Cook Islands	5	73	-165.818893	-10.88237	Roto
256	Alaska	 	United States	6	713	-165.777405	54.137001	Akutan
257	Alaska	 	United States	5	-1	-165.772095	68.102522	Chariot
258	Alaska	 	United States	6	465	-165.5755	61.840179	Scammon Bay
259	Alaska	 	United States	4	3505	-165.4245	64.528503	Nome
260	Alaska	 	United States	6	-1	-165.330467	62.338107	Black
261	Alaska	 	United States	5	-1	-165.324248	64.483283	Fort Davis
262	Alaska	 	United States	6	325	-165.244762	60.578904	Tanunak
263	Alaska	 	United States	5	-1	-165.1922	60.501701	Umkumiut
264	Alaska	 	United States	5	-1	-165.104708	60.533212	Toksook
265	Alaska	 	United States	5	-1	-164.966293	64.463676	Cape Nome
266	Alaska	 	United States	6	532	-164.964757	60.539113	Toksook Bay
267	Alaska	 	United States	6	218	-164.892782	62.516887	Sheldon Point
268	Alaska	 	United States	6	-1	-164.855256	62.726784	New Fort Hamilton
269	Alaska	 	United States	5	-1	-164.8517	62.530201	Sheldons Point
270	Alaska	 	United States	5	-1	-164.829102	64.448677	Port Safety
271	Alaska	 	United States	6	-1	-164.78583	62.58917	Nililak
272	Alaska	 	United States	5	-1	-164.767197	66.528442	Kividlo
273	Alaska	 	United States	5	-1	-164.684204	66.530777	Singeak
274	Alaska	 	United States	6	377	-164.541306	67.727951	Kivalina
275	Alaska	 	United States	5	-1	-164.455597	64.557426	Solomon
276	Alaska	 	United States	5	-1	-164.409698	64.559387	Dickson
277	Alaska	 	United States	4	-1	-164.216667	60.066667	Cheching
278	Alaska	 	United States	6	-1	-164.02861	59.82111	Anogok
279	Alaska	 	United States	5	-1	-163.967606	66.58889	Espenberg
280	Alaska	 	United States	5	-1	-163.949295	64.564339	Topkok
281	Alaska	 	United States	5	-1	-163.803497	64.576591	Tonok
282	Alaska	 	United States	5	-1	-163.755295	64.571564	Bluff
283	Alaska	 	United States	6	-1	-163.615799	66.557884	Cape Espenberg
284	Alaska	 	United States	4	-1	-163.416667	63.033333	Chaniliut
285	Alaska	 	United States	6	64	-163.413406	54.841049	False Pass
286	Alaska	 	United States	5	-1	-163.382202	64.515266	Chiukak
287	Alaska	 	United States	4	-1	-163.309803	54.743425	Ikatan
288	Alaska	 	United States	5	-1	-163.307205	54.897121	Morzhovoi
289	Alaska	 	United States	6	-1	-163.30417	62.99722	Pastolik
290	Alaska	 	United States	6	338	-163.125595	59.863811	Kwigillingok
291	Alaska	 	United States	6	247	-163.059296	69.752159	Point Lay
292	Alaska	 	United States	6	144	-163.026407	64.543327	Golovin
293	Alaska	 	United States	6	359	-162.86003	59.937489	Kongiganak
294	Alaska	 	United States	5	-1	-162.831894	66.994476	Sheshalik
295	Alaska	 	United States	5	-1	-162.803299	54.478279	Sanak
296	Alaska	 	United States	5	-1	-162.765396	63.211102	Nokrot
297	Alaska	 	United States	6	136	-162.738602	66.070618	Deering
298	Alaska	 	United States	6	88	-162.736099	55.18494	Cold Bay
299	Alaska	 	United States	5	-1	-162.708694	54.454899	Pauloff Harbor
300	Alaska	 	United States	5	-1	-162.621902	64.476463	Portage Roadhouse
301	Alaska	 	United States	5	3082	-162.599899	66.892288	Kotzebue
302	Alaska	 	United States	6	-1	-162.5925	63.23611	Pikmiktalik
303	Alaska	 	United States	5	-1	-162.457374	64.554487	Walla Walla
304	Alaska	 	United States	6	792	-162.303894	55.059448	King Cove
305	Alaska	 	United States	6	547	-162.272095	63.52417	Stebbins
306	Alaska	 	United States	6	313	-162.268799	64.614349	Elim
307	Alaska	 	United States	6	368	-162.109141	63.47759	Saint Michael
308	Alaska	 	United States	5	-1	-162.066666	64.695998	Moses Point
309	Alaska	 	United States	5	-1	-162.039001	55.08868	Belkofski
310	Alaska	 	United States	6	555	-161.916504	59.74847	Quinhagak
311	Alaska	 	United States	6	0	-161.912399	70.289337	Akeonik
312	Alaska	 	United States	5	-1	-161.858868	66.024503	Kiwalik
313	Alaska	 	United States	6	41	-161.824097	59.01231	Platinum
314	Alaska	 	United States	6	-1	-161.481382	63.465088	Klikitarik
315	Alaska	 	United States	5	-1	-161.357193	66.254837	Elephant Point
316	Alaska	 	United States	6	-1	-161.350113	66.257637	Baldwin
317	Alaska	 	United States	6	83	-161.18903	55.920749	Nelson Lagoon
318	Alaska	 	United States	6	297	-161.163498	64.931267	Koyuk
319	Alaska	 	United States	6	230	-161.15437	64.332158	Shaktoolik
320	 	Rakahanga	Cook Islands	5	38	-161.090698	-10.03873	Rakahanga
321	 	Tauhunu	Cook Islands	5	69	-161.021805	-10.41609	Tauhunu
322	 	Manihiki Island	Cook Islands	5	-1	-160.992905	-10.37171	Tucao
323	Alaska	 	United States	5	-1	-160.919589	64.036885	Egavik
324	Alaska	 	United States	5	-1	-160.890106	64.560837	Ungalik
325	Alaska	 	United States	6	747	-160.795455	63.879546	Unalakleet
326	Alaska	 	United States	4	-1	-160.683333	55.77	Herendeen Bay
327	Alaska	 	United States	5	-1	-160.5755	55.984909	Port Moller
328	Alaska	 	United States	5	-1	-160.545303	55.246841	Squaw Harbor
329	Alaska	 	United States	5	-1	-160.505203	55.18404	Unga
330	Alaska	 	United States	6	952	-160.488007	55.33329	Sand Point
331	Alaska	 	United States	5	-1	-160.435287	56.165741	Bear River
332	Alaska	 	United States	6	809	-160.381393	59.071522	Togiak
333	Alaska	 	United States	6	69	-160.268097	59.080391	Twin Hills
334	Hawaii	Niihau	United States	5	-1	-160.239502	21.815889	Kahaino
335	Hawaii	Niihau	United States	5	-1	-160.233307	21.873791	Nonopapa
336	Alaska	 	United States	5	-1	-160.224503	55.416759	Village
337	Hawaii	Niihau	United States	6	-1	-160.21278	21.88639	Kiekie
338	Hawaii	Niihau	United States	5	-1	-160.203995	21.90468	Puuwai
339	Alaska	 	United States	5	-1	-160.1418	58.93412	Ungalikthluk
340	Alaska	 	United States	6	546	-160.0271	70.640549	Wainwright
341	 	Jarvis Island	Jarvis Island	6	-1	-160.01889	-0.37972	Millersville
342	 	Rarotonga	Cook Islands	5	-1	-159.816803	-21.22121	Arorangi
343	 	Mangari	Cook Islands	5	-1	-159.799896	-18.86552	Arutunga
344	 	Mangari	Cook Islands	5	-1	-159.784607	-18.874689	Tautu
345	Hawaii	Kauai	United States	6	-1	-159.78333	22.01667	Waieli
346	 	Rarotonga	Cook Islands	1	13151	-159.765793	-21.20393	Avarua
347	Hawaii	Kauai	United States	5	-1	-159.764008	22.05415	Mana
348	 	Rarotonga	Cook Islands	5	-1	-159.727493	-21.238079	Muri
349	Hawaii	Kauai	United States	6	3175	-159.713303	21.978729	Kekaha
350	Hawaii	Kauai	United States	5	1787	-159.6763	21.96846	Waimea
351	Hawaii	Kauai	United States	5	-1	-159.649094	22.178619	Kalalau
352	Hawaii	Kauai	United States	6	1130	-159.648673	21.945001	Pakala Village
353	Hawaii	Kauai	United States	5	-1	-159.632797	21.92704	Makaweli
354	Alaska	 	United States	5	-1	-159.627197	56.597019	Ilnik
355	Hawaii	Kauai	United States	6	607	-159.622222	21.918889	Kaumakani
356	Hawaii	Kauai	United States	5	2153	-159.595278	21.911944	Hanapepe
357	Hawaii	Kauai	United States	6	2040	-159.587997	21.91201	Eleele
358	Hawaii	Kauai	United States	4	-1	-159.564722	22.224444	Haena
359	Hawaii	Kauai	United States	5	-1	-159.557907	22.216949	Wainiha
360	Hawaii	Kauai	United States	5	3913	-159.532104	21.93004	Kalaheo
361	Hawaii	Kauai	United States	6	1984	-159.504739	21.924943	Lawai
362	Hawaii	Kauai	United States	6	478	-159.503098	22.204321	Hanalei
363	Hawaii	Kauai	United States	5	-1	-159.493698	21.90126	Kukuiula
364	Hawaii	Kauai	United States	6	1221	-159.486181	21.925077	Omao
365	Hawaii	Kauai	United States	6	1698	-159.485392	22.223513	Princeville
366	Hawaii	Kauai	United States	5	1942	-159.464294	21.911381	Koloa
367	Hawaii	Kauai	United States	6	1075	-159.462403	21.88142	Poipu
368	Hawaii	Kauai	United States	5	2092	-159.428604	22.21788	Kilauea
369	Hawaii	Kauai	United States	6	1186	-159.399556	21.968793	Puhi
370	Line Islands	Tabuaeran / Fanning Island	Kiribati	5	-1	-159.397072	3.915957	Napari
371	Hawaii	Kauai	United States	5	5674	-159.380402	21.98501	Lihue
372	Hawaii	Kauai	United States	5	4567	-159.379603	22.065682	Wailua Homesteads
373	Line Islands	Fanning Island	Kiribati	5	-1	-159.369792	3.852868	Weston Point
374	Hawaii	Kauai	United States	5	-1	-159.355392	22.1082	Kealia
375	Hawaii	Kauai	United States	5	3272	-159.352431	21.998151	Hanamaulu
376	Hawaii	Kauai	United States	6	2083	-159.347595	22.055731	Wailua
377	Hawaii	Kauai	United States	4	-1	-159.340556	22.189444	Moloaa
378	Hawaii	Kauai	United States	3	9472	-159.334	22.0846	Kapaa
379	Hawaii	Kauai	United States	5	1932	-159.319305	22.149099	Anahola
380	Hawaii	Kauai	United States	6	-1	-159.31	22.11083	Kumukumu
381	Alaska	 	United States	6	107	-159.138702	55.909931	Perryville
382	Alaska	 	United States	6	-1	-158.89	58.71028	Igushik
383	Alaska	 	United States	5	-1	-158.716507	55.984451	Mitrofania
384	Alaska	 	United States	5	-1	-158.692307	56.90947	Meshik
385	Alaska	 	United States	5	-1	-158.565002	58.813099	Ekuk
386	Alaska	 	United States	5	-1	-158.551605	59.014912	Nelsonville
387	Alaska	 	United States	5	-1	-158.545197	58.997688	Konakanak
388	Alaska	 	United States	6	103	-158.5242	56.351761	Chignik Lagoon
389	Alaska	 	United States	6	120	-158.515717	58.845722	Clarks Point
390	Alaska	 	United States	5	-1	-158.486206	58.949661	Nushagak
391	Alaska	 	United States	5	2466	-158.463303	59.042999	Dillingham
392	Alaska	 	United States	5	-1	-158.447403	59.071289	Wood River
393	Alaska	 	United States	6	79	-158.415497	56.289761	Chignik
394	Hawaii	Oahu	United States	5	7753	-158.215062	21.468274	Makaha
395	Hawaii	Oahu	United States	6	1289	-158.203782	21.48235	Makaha Valley
396	Hawaii	Oahu	United States	5	10506	-158.190704	21.449089	Waianae
397	Hawaii	Oahu	United States	5	5943	-158.18042	21.418733	Maili
398	Hawaii	Oahu	United States	6	1839	-158.178807	21.582216	Mokuleia
399	Hawaii	Oahu	United States	4	-1	-158.171667	21.57	Dillingham Ranch
400	Hawaii	Oahu	United States	3	10814	-158.151993	21.39296	Nanakuli
401	Hawaii	Oahu	United States	4	3761	-158.134399	21.57423	Waialua
402	 	Atiu	Cook Islands	5	-1	-158.128204	-19.9804	Tengatangi
403	Hawaii	Oahu	United States	6	2225	-158.114197	21.59034	Haleiwa
404	Hawaii	Oahu	United States	4	-1	-158.114167	21.572778	Kamooloa
405	Hawaii	Oahu	United States	4	-1	-158.086667	21.608889	Kawailoa Camp
406	Hawaii	Oahu	United States	6	67	-158.083156	21.32455	Barbers Point Housing
407	Hawaii	Oahu	United States	4	-1	-158.08	21.628056	Kawailoa Beach
408	Hawaii	Oahu	United States	4	-1	-158.066111	21.648889	Waimea
409	 	Omoka	Cook Islands	5	180	-158.057907	-9.00666	Omoka
410	Hawaii	Oahu	United States	4	-1	-158.055278	21.666389	Sunset Beach
411	Hawaii	Oahu	United States	6	4250	-158.049896	21.671471	Pupukea
412	Hawaii	Oahu	United States	3	-1	-158.046494	21.341829	Ewa
413	Hawaii	Oahu	United States	4	-1	-158.036111	21.367778	Honouliuli
414	Hawaii	Oahu	United States	6	4939	-158.030775	21.34415	Ewa Gentry
415	Hawaii	Oahu	United States	5	9625	-158.030187	21.39815	Village Park
416	Hawaii	Oahu	United States	4	-1	-158.021944	21.6775	Waialee
417	Hawaii	Oahu	United States	3	33108	-158.018799	21.39156	Waipahu
418	Hawaii	Oahu	United States	5	14650	-158.013199	21.3169	Ewa Beach
419	Hawaii	Oahu	United States	6	410	-158.009886	21.70323	Kawela Bay
420	Hawaii	Oahu	United States	5	11672	-158.000602	21.418307	Waipio
421	Hawaii	Oahu	United States	5	2462	-157.981333	21.325329	Iroquois Point
422	Hawaii	Oahu	United States	3	30976	-157.979401	21.39666	Pearl City
423	Hawaii	Oahu	United States	6	-1	-157.97722	21.70333	Marconi
424	Hawaii	Oahu	United States	5	5471	-157.961371	21.341267	Hickam Housing
425	 	Mangaia	Cook Islands	5	-1	-157.957306	-21.90237	Oneroa
426	Hawaii	Oahu	United States	5	2097	-157.954803	21.68059	Kahuku
427	Hawaii	Oahu	United States	4	29371	-157.943243	21.404659	Waimalu
428	Hawaii	Oahu	United States	3	9019	-157.932602	21.347071	Aiea
429	 	 	Cook Islands	5	-1	-157.931702	-8.988199	Tautua
430	Hawaii	Oahu	United States	5	4585	-157.925454	21.649067	Laie
431	Hawaii	Oahu	United States	5	3651	-157.924301	21.612869	Hauula
432	Hawaii	Oahu	United States	4	13891	-157.92158	21.37945	Halawa
433	Hawaii	Oahu	United States	4	-1	-157.918333	21.381667	Halawa Heights
434	Hawaii	Oahu	United States	5	9918	-157.914388	21.364854	Aliamanu
435	 	Mangaia	Cook Islands	5	-1	-157.898605	-21.904671	Ivirua
436	Hawaii	Oahu	United States	6	881	-157.896576	21.5926	Punaluu
437	Hawaii	Oahu	United States	6	726	-157.875226	21.501379	Waikane
438	Hawaii	Oahu	United States	5	5904	-157.874203	21.3536	Fort Shafter
439	Hawaii	Oahu	United States	5	1324	-157.862	21.5529	Kaaawa
440	Hawaii	Oahu	United States	2	371657	-157.85447	21.305145	Honolulu
441	Hawaii	Oahu	United States	4	-1	-157.84816	21.548088	Kahana
442	Hawaii	Oahu	United States	4	2935	-157.837396	21.46117	Kahaluu
443	Hawaii	Oahu	United States	5	8506	-157.836518	21.441237	Ahuimanu
444	Hawaii	Oahu	United States	5	4944	-157.817183	21.428	Heeia
445	Hawaii	Oahu	United States	3	34970	-157.803299	21.417351	Kaneohe
446	Hawaii	Oahu	United States	5	4869	-157.765766	21.3724	Maunawili
447	Hawaii	Oahu	United States	5	-1	-157.760895	21.28858	Aina Haina
448	Hawaii	Oahu	United States	5	11827	-157.760696	21.44882	Kaneohe Station
449	Hawaii	Oahu	United States	4	36513	-157.746704	21.40423	Kailua
450	Hawaii	Oahu	United States	6	-1	-157.719942	21.388052	Lanikai
451	 	Mitiaro	Cook Islands	6	-1	-157.716667	-19.816667	Nukatere
452	Hawaii	Oahu	United States	5	3664	-157.7108	21.32802	Waimanalo
453	Hawaii	Oahu	United States	5	-1	-157.7052	21.280411	Maunalua
454	Alaska	 	United States	6	100	-157.586899	57.56036	Pilot Point
455	Line Islands	Kiritimati / Christmas Island	Kiribati	5	-1	-157.536137	1.863853	Poland
456	Line Islands	Kiritimati / Christmas Island	Kiribati	5	-1	-157.488023	1.938817	Paris
457	Line Islands	Kiritimati / Christmas Island	Kiribati	5	-1	-157.473164	1.987615	London
458	Line Islands	Kiritimati / Christmas Island	Kiribati	5	-1	-157.392501	1.98125	Banana
459	Alaska	 	United States	6	116	-157.378296	58.213509	Egegik
460	 	Mauke	Cook Islands	5	-1	-157.335297	-20.154209	Nukuao
461	Alaska	 	United States	6	-1	-157.293106	71.02491	Nulavik
462	Hawaii	Molokai	United States	5	-1	-157.259293	21.099779	Halena
463	Hawaii	Molokai	United States	6	-1	-157.2575	21.17083	Wahilauhue
464	Hawaii	Molokai	United States	6	-1	-157.246988	21.192666	Kepuhi
465	Hawaii	Molokai	United States	4	-1	-157.215	21.135	Mauna Loa
466	Hawaii	Molokai	United States	6	-1	-157.15611	21.2	Moomomi
467	Hawaii	Molokai	United States	4	-1	-157.071389	21.171111	Hoolehua
468	Hawaii	Molokai	United States	6	-1	-157.05556	21.10972	Umipaa
469	Alaska	 	United States	4	-1	-157.055	58.778333	Libbyville
470	Alaska	 	United States	5	-1	-157.046005	58.931141	Nakeen
471	Hawaii	Molokai	United States	5	1936	-157.039398	21.15892	Kualapuu
472	Alaska	 	United States	6	678	-157.0242	58.728909	Naknek
473	Hawaii	Molokai	United States	5	2726	-157.023102	21.09651	Kaunakakai
474	Alaska	 	United States	6	137	-157.0103	58.713371	South Naknek
475	Alaska	 	United States	5	-1	-157.009201	58.867298	Koggiung
476	Hawaii	Lanai	United States	5	-1	-156.985199	20.79155	Kaumalapau
477	Hawaii	Molokai	United States	5	-1	-156.9814	21.19187	Kalaupapa
478	Hawaii	Molokai	United States	5	-1	-156.957397	21.075439	Moku
479	Alaska	 	United States	5	-1	-156.935104	58.967449	Kvichak
480	Hawaii	Molokai	United States	5	-1	-156.881195	21.058069	Kamalo
481	Hawaii	Molokai	United States	4	-1	-156.835	21.088611	Kaluaaha
482	Hawaii	Lanai	United States	5	-1	-156.833801	20.8508	Keomuku
483	Hawaii	Molokai	United States	6	-1	-156.8325	21.06583	Ualapue
484	Hawaii	Molokai	United States	5	-1	-156.8004	21.082041	Pukoo
485	Alaska	 	United States	5	4581	-156.773499	71.29026	Barrow
486	Hawaii	Molokai	United States	6	3743	-156.76139	21.10028	Waialua
487	Alaska	 	United States	5	-1	-156.7509	71.300842	Browerville
488	Hawaii	Molokai	United States	5	-1	-156.740097	21.15839	Halawa
489	Hawaii	Maui	United States	6	1375	-156.690201	20.9326	Kaanapali
490	Hawaii	Maui	United States	4	-1	-156.676667	20.935	Puukolii
491	Hawaii	Maui	United States	3	9118	-156.672806	20.881559	Lahaina
492	Hawaii	Maui	United States	6	-1	-156.665	20.90083	Crater Village
493	Hawaii	Maui	United States	4	-1	-156.658889	21.003056	Honokahua
494	Hawaii	Maui	United States	6	-1	-156.65861	20.96	Mahinahina Camp
495	Hawaii	Maui	United States	6	467	-156.658126	20.999664	Kapalua
496	Hawaii	Maui	United States	5	-1	-156.621094	20.820299	Olowalu
497	Hawaii	Maui	United States	5	-1	-156.557007	20.999201	Kahakuloa
498	Hawaii	Maui	United States	6	454	-156.514694	20.803169	Maalaea
499	Hawaii	Maui	United States	5	-1	-156.511307	20.934271	Waihee
500	Hawaii	Maui	United States	6	-1	-156.50917	20.84083	Hyashi Village
501	Hawaii	Maui	United States	3	12296	-156.506897	20.8923	Wailuku
502	Hawaii	Maui	United States	3	20146	-156.468201	20.89208	Kahului
503	Alaska	 	United States	5	-1	-156.458496	71.385719	Nuwuk
504	Hawaii	Maui	United States	5	16749	-156.457596	20.78537	Kihei
505	Hawaii	Maui	United States	3	-1	-156.4543	20.87302	Puunene
506	Hawaii	Maui	United States	5	-1	-156.4422	20.708639	Keawakapu
507	Hawaii	Maui	United States	6	-1	-156.44111	20.85778	Village Eight
508	Hawaii	Maui	United States	5	-1	-156.437698	20.65884	Makena
509	Hawaii	Maui	United States	5	-1	-156.420303	20.60634	Keoneoio
510	Hawaii	Maui	United States	6	-1	-156.41722	20.90583	Hawaiian Village
511	Hawaii	Maui	United States	5	-1	-156.399002	20.652189	Ulupalakua
512	Hawaii	Maui	United States	6	2499	-156.370982	20.911731	Paia
513	Hawaii	Maui	United States	6	-1	-156.32583	20.9175	Haiku
514	Hawaii	Maui	United States	5	-1	-156.315598	20.93594	Pauwela
515	Hawaii	Maui	United States	6	-1	-156.28667	20.90944	Ulumalu
516	Hawaii	Maui	United States	5	-1	-156.216507	20.899321	Kailua
517	Hawaii	Maui	United States	4	2153	-156.136389	20.848611	Wailua
518	Hawaii	Maui	United States	5	-1	-156.123993	20.643209	Kaupo
519	Hawaii	Maui	United States	5	-1	-156.092102	20.82375	Nahiku
520	Hawaii	Maui	United States	5	-1	-156.054596	20.66032	Kipahulu
521	Alaska	 	United States	5	-1	-156.052002	57.565491	Kanatak
522	Hawaii	Hawaii	United States	5	-1	-156.037903	19.78076	Mahaiula
523	Hawaii	Maui	United States	4	-1	-156.024722	20.784722	Kaeleku
524	Hawaii	Maui	United States	5	-1	-156.020096	20.69272	Muolea
525	Hawaii	Maui	United States	4	-1	-156.0125	20.698611	Haou
526	Hawaii	Maui	United States	5	-1	-156.000595	20.709999	Puuiki
527	Hawaii	Hawaii	United States	6	-1	-155.986701	19.831608	Kaupulehu
528	Hawaii	Maui	United States	6	709	-155.986694	20.757151	Hana
529	Hawaii	Hawaii	United States	6	-1	-155.9675	19.60694	Sea View
530	Hawaii	Hawaii	United States	4	-1	-155.96419	19.5662	Keauhou
531	Hawaii	Hawaii	United States	6	3980	-155.960519	19.575554	Kahaluu
532	Hawaii	Hawaii	United States	5	3206	-155.925797	19.499769	Captain Cook
533	Hawaii	Hawaii	United States	5	-1	-155.921204	19.85671	Kiholo
534	Hawaii	Hawaii	United States	5	-1	-155.916595	19.47991	Napoopao
535	Hawaii	Hawaii	United States	4	-1	-155.913056	19.426944	Honaunau
536	Hawaii	Hawaii	United States	5	-1	-155.906006	19.18652	Milolii
537	Hawaii	Hawaii	United States	6	-1	-155.903929	19.897998	Weliweli
538	Hawaii	Hawaii	United States	6	-1	-155.90083	19.38306	Hookena
539	Hawaii	Hawaii	United States	5	-1	-155.895996	20.184629	Mahukona
540	Hawaii	Hawaii	United States	6	-1	-155.888634	19.911496	Anaehoomalu
541	Hawaii	Hawaii	United States	5	-1	-155.883606	19.416109	Keokea
542	Hawaii	Hawaii	United States	4	-1	-155.881944	19.400278	Kealia
543	Hawaii	Hawaii	United States	5	-1	-155.871796	19.214621	Papa
544	Hawaii	Hawaii	United States	6	429	-155.841797	19.970711	Puako
545	Hawaii	Hawaii	United States	6	938	-155.834185	20.242845	Hawi
546	Hawaii	Hawaii	United States	6	4496	-155.827678	19.93238	Waikoloa Village
547	Hawaii	Hawaii	United States	5	-1	-155.827393	20.04421	Kawaihae
548	Hawaii	Hawaii	United States	6	1159	-155.810858	20.230666	Kapaau
549	Hawaii	Hawaii	United States	6	495	-155.781006	20.23624	Halaula
550	Hawaii	Hawaii	United States	5	-1	-155.746094	20.21945	Makapala
551	Hawaii	Hawaii	United States	4	-1	-155.745833	20.225556	Niulii
552	Hawaii	Hawaii	United States	5	-1	-155.698395	18.957569	Waiahukini
553	Hawaii	Hawaii	United States	5	-1	-155.617004	18.979601	Kaalualu
554	Hawaii	Hawaii	United States	5	-1	-155.603195	20.110201	Waipio
555	Hawaii	Hawaii	United States	6	919	-155.589996	19.064581	Naalehu
556	Hawaii	Hawaii	United States	6	317	-155.570697	20.12549	Kukuihaele
557	Hawaii	Hawaii	United States	5	-1	-155.554199	19.096901	Honuapo
558	Hawaii	Hawaii	United States	6	-1	-155.53667	19.13861	Hilea
559	Hawaii	Hawaii	United States	5	2233	-155.4702	20.08054	Honokaa
560	Hawaii	Hawaii	United States	6	571	-155.377899	20.04697	Paauilo
561	Hawaii	Hawaii	United States	6	-1	-155.35028	20.03278	Kukaiau
562	Hawaii	Hawaii	United States	4	-1	-155.287778	20.002222	Ookala
563	Hawaii	Hawaii	United States	6	473	-155.240079	19.978529	Laupahoehoe
564	Hawaii	Hawaii	United States	5	-1	-155.228897	19.976629	Papaaloa
565	Hawaii	Hawaii	United States	4	-1	-155.200833	19.960556	Weloka
566	Hawaii	Hawaii	United States	6	-1	-155.16889	19.93889	Ninole
567	Hawaii	Hawaii	United States	6	-1	-155.12917	19.89972	Hakalau
568	Hawaii	Hawaii	United States	6	541	-155.119797	19.87463	Honomu
569	Hawaii	Hawaii	United States	5	1697	-155.107222	19.833611	Pepeekeo
570	Hawaii	Hawaii	United States	6	1227	-155.100954	19.747258	Wainaku
571	Hawaii	Hawaii	United States	5	1414	-155.100494	19.79138	Papaikou
572	Hawaii	Hawaii	United States	6	495	-155.098569	19.764369	Paukaa
573	Hawaii	Hawaii	United States	3	40759	-155.082853	19.717646	Hilo
574	Hawaii	Hawaii	United States	6	-1	-155.03944	19.35889	Royal Gardens
575	Hawaii	Hawaii	United States	5	-1	-155.014099	19.34444	Kupaahu
576	Hawaii	Hawaii	United States	4	-1	-154.97951	19.354803	Kalapana
577	Hawaii	Hawaii	United States	5	7051	-154.973125	19.593256	Hawaiian Paradise Park
578	Hawaii	Hawaii	United States	5	-1	-154.933304	19.586969	Makuu
579	Hawaii	Hawaii	United States	5	3709	-154.915722	19.543004	Hawaiian Beaches
580	Hawaii	Hawaii	United States	4	-1	-154.883333	19.429722	Opihikao
581	Hawaii	Hawaii	United States	5	-1	-154.853104	19.466881	Pohoiki
582	Hawaii	Hawaii	United States	5	-1	-154.848099	19.52887	Koae
583	Alaska	Kodiak Island	United States	5	-1	-154.538406	57.198109	Ayakulik
584	Alaska	Kodiak Island	United States	6	27	-154.463501	57.563202	Karluk
585	Alaska	 	United States	4	-1	-154.254133	59.125891	Kamishak
586	Alaska	Kodiak Island	United States	6	80	-154.179001	56.946789	Akhiok
587	Alaska	 	United States	6	-1	-154.13889	59.21389	Chenik
588	Alaska	 	United States	4	-1	-153.995563	57.6402	Uyak
589	Alaska	Kodiak Island	United States	6	115	-153.986603	57.52602	Larsen Bay
590	Alaska	Kodiak Island	United States	5	-1	-153.779007	56.856621	Kaguyak
591	Alaska	 	United States	5	-1	-153.638794	59.685989	Williamsport
592	Alaska	Kodiak Island	United States	5	-1	-153.523499	57.121269	Nunamiut
593	Alaska	Kodiak Island	United States	5	-1	-153.323303	57.728691	Port O'Brien
594	Alaska	Kodiak Island	United States	6	237	-153.314301	57.20414	Old Harbor
595	Alaska	Sitkalidak Island	United States	5	-1	-153.197906	57.140209	McCord
596	Alaska	Sitkalidak Island	United States	5	-1	-153.164001	57.15699	Port Hobron
597	Alaska	 	United States	5	-1	-153.077194	70.912987	Kokruagarok
598	Alaska	Raspberry Island	United States	4	-1	-153.059906	58.047413	Port Wakefield
599	Alaska	Kodiak Island	United States	5	-1	-153.050201	57.926552	Port Bailey
600	Alaska	Kodiak Island	United States	6	256	-152.858909	57.89076	Port Lions
601	 	Rimatara	French Polynesia	5	235	-152.843002	-22.63098	Amaru
602	Alaska	Afognak Island	United States	4	-1	-152.776527	58.010838	Afognak
603	Alaska	 	United States	6	0	-152.602386	70.882294	Abandoned
604	Alaska	Shuyak Island	United States	5	-1	-152.595596	58.492142	Port William
605	Alaska	Kodiak Island	United States	6	1840	-152.526856	57.762943	Kodiak Station
606	Alaska	Spruce Island	United States	6	225	-152.501694	57.92218	Ouzinkie
607	Alaska	Kodiak Island	United States	3	6334	-152.416794	57.788239	Kodiak
608	Alaska	 	United States	6	-1	-152.35528	57.78	Aleksashkina
609	Alaska	Kodiak Island	United States	6	50	-152.169909	57.61699	Chiniak
610	Alaska	 	United States	6	-1	-152.16111	60.59167	Drift River
611	Alaska	 	United States	6	158	-151.919907	59.358189	English Bay
612	Alaska	 	United States	6	171	-151.842697	59.352558	Port Graham
613	Alaska	 	United States	5	1845	-151.836594	59.778709	Anchor Point
614	Alaska	 	United States	5	-1	-151.757599	59.210991	Portlock
615	Alaska	 	United States	5	-1	-151.751205	60.71442	Kustatan
616	 	Bora Bora	French Polynesia	5	4600	-151.746399	-16.50728	Vaitape
617	 	Bora Bora	French Polynesia	5	2031	-151.740799	-16.485901	Faanui
618	Alaska	 	United States	6	489	-151.732222	59.947278	Happy Valley
619	 	Bora Bora	French Polynesia	5	1386	-151.729004	-16.49575	Anau
620	Alaska	 	United States	6	144	-151.712204	59.43565	Seldovia
621	Alaska	 	United States	6	772	-151.678604	60.048111	Ninilchik
622	Alaska	 	United States	5	1802	-151.5575	59.67611	Diamond Ridge
623	Alaska	 	United States	5	3946	-151.557098	59.6493	Homer
624	 	Tahaa	French Polynesia	5	-1	-151.542999	-16.639311	Tiva
625	Alaska	 	United States	6	56	-151.510399	59.446922	Jakolof Bay
626	 	Raiatea	French Polynesia	5	-1	-151.488602	-16.77179	Peavitoa
627	 	Tahaa	French Polynesia	5	-1	-151.487305	-16.58733	Patio
628	 	Raiatea	French Polynesia	5	904	-151.478806	-16.85671	Vaiaau
629	 	Tahaa	French Polynesia	5	431	-151.4561	-16.668631	Vaitoare
630	 	Raiatea	French Polynesia	4	3612	-151.448898	-16.73164	Uturoa
631	Alaska	 	United States	4	-1	-151.439884	59.669594	Millers Landing
632	 	Raiatea	French Polynesia	5	377	-151.434494	-16.90379	Fetuna
633	Alaska	 	United States	6	431	-151.431041	59.674003	Kachemak
634	Alaska	 	United States	6	-1	-151.40694	61.01361	Shirleyville
635	Alaska	 	United States	6	173	-151.400101	60.226761	Clam Gulch
636	Alaska	 	United States	5	-1	-151.392395	60.678421	Nikisnka
637	Alaska	 	United States	5	4327	-151.382747	60.725224	Nikiski
638	 	Raiatea	French Polynesia	5	1159	-151.362701	-16.86175	Opoa
639	 	Rurutu	French Polynesia	5	375	-151.349792	-22.47744	Auti
640	Alaska	 	United States	5	-1	-151.347794	60.730301	Nkishka No 2
641	Alaska	 	United States	6	954	-151.342499	60.61739	Salamatof
642	 	Rurutu	French Polynesia	5	1032	-151.332901	-22.456409	Moerai
643	Alaska	 	United States	5	-1	-151.304794	61.032761	Old Tyonek
644	Alaska	 	United States	5	1168	-151.3	60.366667	Cohoe
645	Alaska	 	United States	6	1603	-151.295346	59.736089	Fritz Creek
646	Alaska	 	United States	5	-1	-151.286102	60.34417	Kasilof Village
647	Alaska	 	United States	4	5846	-151.283333	60.416667	Kalifornsky
648	Alaska	 	United States	6	570	-151.27977	60.410079	Kalifonsky
649	Alaska	 	United States	5	6942	-151.270599	60.55674	Kenai
650	Alaska	 	United States	6	35	-151.237659	59.587217	Halibut Cove
651	Alaska	 	United States	6	193	-151.159805	61.062859	Tyonek
652	Alaska	 	United States	5	-1	-151.126801	61.094158	Ladd
653	Alaska	 	United States	5	-1	-151.0439	59.80304	Kachemak Silo
654	 	Huahine Nui	French Polynesia	5	-1	-151.031906	-16.71591	Tahateao
655	 	Huahine Nui	French Polynesia	5	1138	-151.029694	-16.726549	Fitii
656	Alaska	 	United States	6	33	-151.02361	61.17917	Beluga
657	 	Huahine Iti	French Polynesia	5	573	-151.008499	-16.77459	Haapu
658	 	Huahine Nui	French Polynesia	5	-1	-150.993103	-16.724319	Farehau
659	 	Huahine Iti	French Polynesia	5	448	-150.986496	-16.816441	Parea
660	 	Huahine Iti	French Polynesia	5	-1	-150.966095	-16.765421	Fareeru
661	Alaska	 	United States	4	-1	-149.916667	61.188333	Spenard
662	Alaska	 	United States	5	-1	-149.904297	61.36591	Bay City
663	 	Moorea	French Polynesia	5	-1	-149.902802	-17.52906	Iumaru
664	Alaska	 	United States	2	260283	-149.898102	61.202549	Anchorage
665	 	Moorea	French Polynesia	5	-1	-149.872299	-17.49332	Papeotai
666	 	Moorea	French Polynesia	5	3950	-149.867599	-17.56378	Haapiti
667	Alaska	 	United States	6	-1	-149.83	61.28	Tuomi
668	Alaska	 	United States	4	-1	-149.825	61.396667	John Fitzgerald Kennedy City
669	 	Moorea	French Polynesia	5	4178	-149.824493	-17.50861	Paopao
670	Alaska	 	United States	6	-1	-149.81667	61.08333	Potter Hill
671	 	Moorea	French Polynesia	5	-1	-149.811401	-17.58572	Maatea
672	 	Moorea	French Polynesia	5	-1	-149.805298	-17.482441	Paraoro
673	 	Moorea	French Polynesia	5	3209	-149.794601	-17.552139	Afareaitu
674	 	Moorea	French Polynesia	5	-1	-149.781097	-17.51755	Farehau
675	 	Moorea	French Polynesia	5	2274	-149.7724	-17.5056	Teavaro
676	Alaska	 	United States	6	272	-149.743195	61.45636	Knik
677	Alaska	 	United States	6	137	-149.650101	60.915489	Hope
678	Alaska	 	United States	5	-1	-149.642899	61.00322	Rainbow
679	 	Tahiti	French Polynesia	5	25573	-149.619095	-17.634781	Punaauia
680	 	Tahiti	French Polynesia	5	29155	-149.597397	-17.550961	Faaa
681	 	Tahiti	French Polynesia	5	13108	-149.587296	-17.692801	Paea
682	 	Tahiti	French Polynesia	5	-1	-149.586304	-17.70846	Taverea
683	Alaska	 	United States	4	-1	-149.581667	61.513333	Cottonwood
684	 	Tahiti	French Polynesia	1	26119	-149.569595	-17.535021	Papeete
685	 	Tahiti	French Polynesia	5	-1	-149.557205	-17.75194	Papao
686	 	Tahiti	French Polynesia	5	14544	-149.541	-17.532129	Pirae
687	 	Tahiti	French Polynesia	5	-1	-149.508606	-17.520741	Papava
688	 	Tahiti	French Polynesia	5	10166	-149.505096	-17.76034	Papara
689	 	Tahiti	French Polynesia	5	-1	-149.500107	-17.50762	Arve
690	 	Mataura	French Polynesia	5	-1	-149.498795	-23.388889	Anua
691	 	Mataura	French Polynesia	5	-1	-149.4897	-23.403099	Tepu
692	 	Tahiti	French Polynesia	5	-1	-149.486801	-17.76722	Atimaono
693	Alaska	 	United States	5	-1	-149.484695	61.40189	Birchwood
694	Alaska	 	United States	4	-1	-149.478333	61.396667	Chugiak
695	 	Mataura	French Polynesia	5	-1	-149.476501	-23.38253	Huahine
696	 	Mataura	French Polynesia	5	900	-149.472595	-23.366779	Mataura
697	Alaska	 	United States	6	92	-149.461622	60.071412	Lowell Point
698	 	Mataura	French Polynesia	5	460	-149.460098	-23.403561	Mahu
699	 	Tahiti	French Polynesia	5	14067	-149.4561	-17.50938	Mahina
700	Alaska	 	United States	2	2830	-149.446701	60.13015	Seward
701	Alaska	 	United States	6	-1	-149.44556	61.41111	Peters Creek
702	 	Tahiti	French Polynesia	5	3425	-149.434296	-17.511971	Papenoo
703	Alaska	 	United States	6	18	-149.433807	60.88834	Sunrise
704	 	Mataura	French Polynesia	5	-1	-149.433304	-23.39661	Tamatoa
705	 	Tahiti	French Polynesia	5	-1	-149.413696	-17.771971	Vaitunanaa
706	 	Tahiti	French Polynesia	5	-1	-149.396393	-17.529421	Haapupuni
707	Alaska	 	United States	5	1748	-149.395	60.16417	Bear Creek
708	 	Tahiti	French Polynesia	5	-1	-149.384201	-17.7575	Ataiti
709	Alaska	 	United States	5	-1	-149.370804	61.46125	Eklutna
710	 	Tahiti	French Polynesia	5	4105	-149.351303	-17.74655	Papeari
711	 	Tahiti	French Polynesia	5	-1	-149.350296	-17.545	Faauanu
712	 	Tahiti	French Polynesia	5	952	-149.328796	-17.56871	Mahaena
713	 	Tahiti	French Polynesia	5	-1	-149.3172	-17.650351	Otuofai
714	 	Tahiti	French Polynesia	5	-1	-149.314896	-17.72028	Taravao
715	 	Tahiti	French Polynesia	5	1796	-149.309402	-17.60824	Hitiaa
716	 	Tahiti	French Polynesia	5	-1	-149.307098	-17.73609	Mitirapa
717	 	Tahiti	French Polynesia	5	-1	-149.2939	-17.82214	Matiti
718	 	Tahiti	French Polynesia	5	1415	-149.265503	-17.847851	Teahupoo
719	 	Tahiti	French Polynesia	5	-1	-149.252701	-17.740561	Nutae
720	 	Tahiti	French Polynesia	5	-1	-149.219803	-17.864759	Toanoano
721	 	Tahiti	French Polynesia	5	-1	-149.211395	-17.74955	Pucu
722	Alaska	 	United States	5	-1	-149.188995	60.947041	Girdwood
723	 	Tahiti	French Polynesia	5	-1	-149.181107	-17.876431	Hotapuu
724	 	Tahiti	French Polynesia	5	2287	-149.164398	-17.75107	Tautira
725	 	Tahiti	French Polynesia	5	-1	-149.136597	-17.833759	Tepati
726	 	Tahiti	French Polynesia	5	-1	-149.134399	-17.79335	Afatauri
727	 	Tahiti	French Polynesia	5	-1	-149.134201	-17.8053	Mataorio
728	Alaska	 	United States	5	-1	-148.985504	60.831532	Portage
729	Alaska	 	United States	6	182	-148.687393	60.769501	Whittier
730	Alaska	 	United States	6	5	-148.376162	70.284047	Prudhoe Bay
731	 	 	French Polynesia	5	-1	-148.2733	-15.81871	Temao
732	 	 	French Polynesia	5	-1	-148.250305	-15.83254	Maumu
733	Alaska	 	United States	5	-1	-148.164505	60.553131	Port Nellie Juan
734	Alaska	Evans Island	United States	4	-1	-148.074653	60.051103	San Juan Cannery
735	Alaska	Evans Island	United States	5	-1	-148.069305	60.059799	Port Ashton
736	Alaska	Evans Island	United States	4	-1	-148.013093	60.064987	Crab Bay
737	Alaska	 	United States	6	-1	-147.98611	60.97	Golden
738	Alaska	Evans Island	United States	6	86	-147.943689	60.104792	Chenega
739	Alaska	Latouche Island	United States	5	-1	-147.900696	60.05196	Latouche
740	 	 	French Polynesia	5	-1	-147.710007	-14.93456	Avatoru
741	 	Raivavae	French Polynesia	5	-1	-147.684006	-23.871241	Rairoa
742	 	Raivavae	French Polynesia	5	-1	-147.673599	-23.86083	Raivavae
743	 	Raivavae	French Polynesia	5	229	-147.652496	-23.86845	Vaiuru
744	 	 	French Polynesia	5	-1	-147.625093	-14.969652	Tiputa
745	 	Iles Palliser	French Polynesia	5	-1	-146.867441	-15.642675	Motu Panao
746	Alaska	 	United States	5	-1	-146.849899	70.180977	Bullen
747	Alaska	 	United States	5	-1	-146.704895	60.89127	Ellamar
748	Alaska	 	United States	6	107	-146.688599	60.86285	Tatitlek
749	Alaska	Hinchinbrook Island	United States	6	-1	-146.65528	60.33333	Nuchek
750	Alaska	 	United States	5	4036	-146.360107	61.135971	Valdez
751	 	Niau	French Polynesia	5	-1	-146.338699	-16.14921	Tupana
752	Alaska	Hinchinbrook Island	United States	6	-1	-146.132723	60.396701	Boswell Bay
753	Alaska	 	United States	4	-1	-145.945963	60.469849	Whitshed
754	Alaska	 	United States	5	2454	-145.753998	60.54187	Cordova
755	Alaska	 	United States	5	-1	-145.738007	60.486599	Crystal
756	Alaska	 	United States	5	-1	-145.714706	60.578621	Orca
757	 	Fakarava	French Polynesia	5	-1	-145.6194	-16.053579	Rotoava
758	 	Takapoto	French Polynesia	6	-1	-145.25	-14.7	Fakatopatere
759	Alaska	 	United States	5	-1	-145.220306	60.443878	Alaganik
760	Alaska	 	United States	5	-1	-144.534607	60.197701	Katalla
761	 	Katiu	French Polynesia	5	-1	-144.339057	-16.377096	Toini
762	 	 	French Polynesia	5	-1	-144.335602	-27.624901	Haurei
763	Alaska	 	United States	5	-1	-144.231995	60.191929	Chilkat
764	Alaska	Barter Island	United States	6	293	-143.631607	70.134529	Kaktovik
765	 	Makemo	French Polynesia	5	-1	-143.568497	-16.641081	Pouheva
766	 	 	French Polynesia	5	-1	-142.671295	-17.54759	Tupapati
767	Alaska	 	United States	5	-1	-142.426407	60.071289	Cape Yakataga
768	 	 	French Polynesia	5	-1	-142.236603	-18.148109	Topitike
769	 	 	French Polynesia	5	-1	-142.235901	-17.969721	Vaiori
770	Alaska	 	United States	5	-1	-141.194794	69.678551	Gordon
771	 	Hao	French Polynesia	5	-1	-140.911499	-18.099859	Otepa
772	 	Amanu	French Polynesia	5	-1	-140.812195	-17.81275	Ikitake
773	 	 	French Polynesia	6	-1	-140.166667	-8.95	Hakaui
774	 	 	French Polynesia	5	2144	-140.072693	-8.929701	Taiohae
775	 	 	French Polynesia	5	-1	-140.054001	-8.845158	Atiheu
776	 	 	French Polynesia	5	-1	-140.028793	-8.887862	Houmi
777	Alaska	 	United States	6	680	-139.733398	59.555191	Yakutat
778	Alaska	 	United States	5	-1	-139.563004	59.43914	Situk
779	 	 	French Polynesia	5	-1	-139.104401	-9.932625	Vaitahu
780	 	 	French Polynesia	5	-1	-139.104202	-9.841109	Hanaoo
781	 	 	French Polynesia	5	-1	-139.102005	-9.979361	Hanateio
782	 	 	French Polynesia	5	-1	-139.096298	-9.75138	Hanaui
783	 	 	French Polynesia	5	1731	-139.031906	-9.796728	Atuona
784	 	 	French Polynesia	5	-1	-138.9263	-9.7434	Mahoe
785	Yukon Territory	Herschel Island	Canada	5	-1	-138.889404	69.577988	Herschel
786	 	 	French Polynesia	6	-1	-138.65	-10.45	Hanavave
787	 	Tureia	French Polynesia	5	-1	-138.559998	-20.77866	Fakamaru
788	 	Tatakoto	French Polynesia	5	-1	-138.464251	-17.352611	Tumukuru
789	 	Tenararo	French Polynesia	6	-1	-136.754828	-21.302506	Toby
790	 	Tenararo	French Polynesia	6	-1	-136.749339	-21.311666	Tilly
791	 	Tenararo	French Polynesia	6	-1	-136.743965	-21.296051	Lauren
792	 	Tenararo	French Polynesia	6	-1	-136.741621	-21.318371	Evie
793	 	Tenararo	French Polynesia	6	-1	-136.734838	-21.306922	Lulu
794	 	Tenararo	French Polynesia	6	-1	-136.734598	-21.315805	Sammy
795	 	Vahaga	French Polynesia	6	-1	-136.664998	-21.329034	Munro
796	 	 	French Polynesia	6	-1	-136.649176	-21.320137	Francesca
797	 	 	French Polynesia	6	-1	-136.639237	-21.332828	Saskia
798	 	Tenaruga	French Polynesia	6	-1	-136.526816	-21.333217	Hannah
799	 	Maturei Vavao	French Polynesia	6	-1	-136.412996	-21.460839	Byron
800	 	Maturei Vavao	French Polynesia	6	-1	-136.379198	-21.462806	Florence
801	Alaska	Chichagof Island	United States	6	32	-136.33921	58.198986	Elfin Cove
802	Alaska	Chichagof Island	United States	5	-1	-136.246201	57.986172	Sunnyside
803	Alaska	Chichagof Island	United States	6	163	-136.217407	57.9641	Pelican
804	Alaska	Chichagof Island	United States	5	-1	-136.098801	57.68808	Kimshan Cove
805	Alaska	Chichagof Island	United States	5	-1	-136.096893	57.67083	Chichagof
806	Alaska	 	United States	6	-1	-135.924878	58.454353	Bartlett Cove
807	Alaska	Chichagof Island	United States	5	-1	-135.870193	57.499561	Cobol
808	Alaska	 	United States	6	429	-135.745895	58.414181	Gustavus
809	 	Marutea	French Polynesia	5	-1	-135.645004	-21.48105	Auorotini
810	Alaska	 	United States	6	39	-135.546959	59.353227	Lutak
811	Alaska	Chichagof Island	United States	6	35	-135.50789	58.056687	Game Creek
812	Alaska	 	United States	5	-1	-135.452499	59.270592	Tanani
813	Alaska	 	United States	6	1811	-135.4505	59.23904	Haines
814	Alaska	 	United States	4	-1	-135.436667	59.23	Port Chilkoot
815	Alaska	 	United States	6	10	-135.436493	58.423241	Excursion Inlet
816	Alaska	Chichagof Island	United States	6	860	-135.434799	58.110321	Hoonah
817	Alaska	 	United States	5	-1	-135.431396	59.212952	Chilkat
818	Alaska	Chichagof Island	United States	6	116	-135.429846	58.071247	Whitestone Logging Camp
819	Alaska	 	United States	6	137	-135.37583	59.15972	Mud Bay
820	Alaska	Baranof Island	United States	5	-1	-135.367599	56.847179	Goddard
821	Alaska	 	United States	6	-1	-135.35444	57.05111	Mount Edgecombe
822	Alaska	Baranof Island	United States	3	8853	-135.317703	57.054329	Sitka
823	Alaska	 	United States	6	862	-135.302037	59.457847	Skagway
824	Alaska	Chichagof Island	United States	6	104	-135.218796	57.784981	Tenakee Springs
825	Alaska	 	United States	5	-1	-135.126602	58.871941	Comet
826	Alaska	Chichagof Island	United States	6	68	-135.097144	57.925424	Freshwater Bay
827	Alaska	Chichagof Island	United States	6	-1	-135.09639	57.78528	Cannery
828	 	Taravai	French Polynesia	5	-1	-135.035706	-23.146311	Taravai
829	Alaska	Chichagof Island	United States	5	-1	-135.035294	57.4683	Todd
830	 	Mangareva	French Polynesia	5	1091	-134.979401	-23.12298	Rikitea
831	Alaska	Chichagof Island	United States	5	-1	-134.946396	57.511478	Chatham
832	Alaska	Admiralty Island	United States	4	-1	-134.846667	58.256667	Funter
833	Alaska	Baranof Island	United States	5	-1	-134.842697	57.091999	Baranof
834	Alaska	 	United States	5	-1	-134.785004	58.472481	Saint Terese
835	Alaska	 	United States	5	-1	-134.778397	58.48848	Dotsons Landing
836	Alaska	 	United States	4	-1	-134.750884	58.408855	Tee Harbor
837	Alaska	 	United States	5	-1	-134.747101	58.41116	Auke Bay
838	Alaska	Admiralty Island	United States	5	-1	-134.741699	58.1283	Hawk Inlet
839	Alaska	Baranof Island	United States	5	-1	-134.740402	56.382431	Big Port Walter
840	Alaska	Admiralty Island	United States	6	72	-134.711234	57.935095	Cube Cove
841	Alaska	Baranof Island	United States	5	-1	-134.669495	56.30262	Port Armstrong
842	Alaska	Baranof Island	United States	6	81	-134.637604	56.259121	Port Alexander
843	Alaska	Admiralty Island	United States	5	-1	-134.593903	57.260361	Neltushkin
844	Alaska	Admiralty Island	United States	6	572	-134.576797	57.497089	Angoon
845	Alaska	 	United States	6	-1	-134.56667	58.39167	Mendenhall Valley
846	Alaska	Admiralty Island	United States	5	-1	-134.532501	57.04073	Tyee
847	Alaska	 	United States	6	-1	-134.49861	58.35833	Lemon Creek
848	Alaska	Admiralty Island	United States	5	-1	-134.408493	57.384472	Hood Bay
849	Alaska	 	United States	2	31642	-134.404007	58.30291	Juneau
850	Alaska	 	United States	5	-1	-134.386093	58.274849	Douglas
851	Alaska	 	United States	5	-1	-134.318802	58.265228	Thane
852	Alaska	Kuiu Island	United States	6	133	-134.229121	56.647175	Rowan Bay
853	Alaska	Kupreanof Island	United States	6	710	-133.942093	56.98093	Kake
854	Alaska	 	United States	4	-1	-133.931559	58.488401	Taku Lodge
855	Alaska	Kosciusko Island	United States	5	-1	-133.781998	55.954208	Cape Pole
856	Alaska	Kosciusko Island	United States	6	49	-133.670502	55.94519	Edna Bay
857	Alaska	Prince of Wales Island	United States	6	35	-133.622299	56.353722	Point Baker
858	Alaska	Prince of Wales Island	United States	6	-1	-133.617416	56.25	Port Alexander
859	Alaska	Prince of Wales Island	United States	6	-1	-133.613304	56.294291	Labouchere Bay
860	Alaska	Heceta Island	United States	6	30	-133.612453	55.806223	Port Alice
861	Alaska	Prince of Wales Island	United States	6	63	-133.598063	56.317143	Port Protection
862	Alaska	 	United States	5	-1	-133.488998	57.209949	Cape Fanshaw
863	Alaska	 	United States	6	3	-133.353254	57.465822	Hobart Bay
864	Alaska	 	United States	5	-1	-133.328796	57.602631	Windham
865	Alaska	 	United States	4	-1	-133.314701	55.935607	Tokeen
866	Alaska	Prince of Wales Island	United States	5	-1	-133.216293	55.291431	Waterfall
867	Alaska	Prince of Wales Island	United States	6	135	-133.18476	55.873675	Naukati Bay
868	Alaska	Prince of Wales Island	United States	6	58	-133.177925	56.106603	Whale Pass
869	Alaska	Prince of Wales Island	United States	5	1397	-133.131805	55.46666	Craig
870	Alaska	Prince of Wales Island	United States	6	854	-133.085419	55.552697	Klawock
871	Northwest Territories	 	Canada	5	962	-132.993125	69.420703	Tuktoyaktuk
872	Alaska	Kupreanof Island	United States	4	-1	-132.97	56.813333	West Petersburg
873	Alaska	Mitkof Island	United States	4	3224	-132.960495	56.806412	Petersburg
874	Alaska	Mitkof Island	United States	6	-1	-132.950976	56.77118	Scow Bay
875	Alaska	Zarembo Island	United States	6	69	-132.941607	56.424816	Saint John Harbor
876	Alaska	Prince of Wales Island	United States	6	199	-132.83906	56.008167	Coffman Cove
877	Alaska	Prince of Wales Island	United States	6	382	-132.814804	55.206081	Hydaburg
878	Alaska	Long Island	United States	6	198	-132.702789	54.899494	Long Island
879	Alaska	Prince of Wales Island	United States	6	557	-132.556396	55.620991	Thorne Bay
880	Alaska	Prince of Wales Island	United States	4	-1	-132.553333	55.628333	Salt Chuck
881	Alaska	Prince of Wales Island	United States	6	270	-132.545879	55.349703	Polk Inlet
882	Alaska	Prince of Wales Island	United States	6	39	-132.403503	55.536381	Kasaan
883	Alaska	Wrangell Isiand	United States	5	2308	-132.379501	56.47686	Wrangell
884	British Columbia	Graham Island	Canada	5	-1	-132.313904	53.611519	Juskatla
885	Alaska	Prince of Wales Island	United States	6	114	-132.295196	55.188991	Dora Bay
886	Alaska	Prince of Wales Island	United States	5	-1	-132.284195	55.52607	Hadley
887	British Columbia	Graham Island	Canada	5	-1	-132.223087	53.662098	Port Clements
888	Alaska	 	United States	6	21	-132.220968	55.717159	Meyers Chuck
889	Alaska	Wrangell Isiand	United States	6	22	-132.185	56.20194	Thoms Place
890	British Columbia	Graham Island	Canada	6	-1	-132.13481	54.014779	Masset
891	British Columbia	Graham Island	Canada	6	-1	-132.115688	53.849772	Nadu
892	British Columbia	Graham Island	Canada	5	-1	-132.102769	53.25281	Queen Charlotte
893	British Columbia	Moresby Island	Canada	5	-1	-132.0383	52.75922	Tasu
894	British Columbia	Graham Island	Canada	5	-1	-131.993275	53.262493	Skidegate
895	British Columbia	Moresby Island	Canada	5	-1	-131.981598	53.20232	Alliford Bay
896	British Columbia	Moresby Island	Canada	5	-1	-131.966705	53.05032	Aero
897	British Columbia	Graham Island	Canada	6	-1	-131.95	53.333333	Haida
898	British Columbia	Graham Island	Canada	5	-1	-131.933701	53.56176	Tlell
899	British Columbia	Graham Island	Canada	5	-1	-131.933105	53.39983	Lawnhill
900	British Columbia	Moresby Island	Canada	6	-1	-131.884176	52.850406	Pacofi
901	British Columbia	Moresby Island	Canada	6	-1	-131.834096	52.716586	Lockeport
902	British Columbia	 	Canada	5	-1	-131.827499	56.688839	Stikine
903	British Columbia	Moresby Island	Canada	5	-1	-131.824691	53.24068	Sandspit
904	Alaska	Revillagigedo	United States	6	-1	-131.81667	55.45	Port Higgins
905	Alaska	 	United States	5	-1	-131.809494	55.923672	Yes Bay
906	Alaska	Revillagigedo	United States	6	-1	-131.783975	55.466388	Clover Pass
907	British Columbia	Graham Island	Canada	6	-1	-131.783253	54.065982	Tow Hill
908	Alaska	Revillagigedo	United States	6	-1	-131.76806	55.42083	Mud Bay
909	Alaska	Revillagigedo	United States	6	-1	-131.73333	55.38333	Peninsula Point
910	Alaska	Revillagigedo	United States	4	-1	-131.725	55.408333	Ward Cove
911	Alaska	Revillagigedo	United States	5	7922	-131.656296	55.342369	Ketchikan
912	Alaska	Revillagigedo	United States	6	-1	-131.626605	55.329529	Pennock Island
913	Alaska	Revillagigedo	United States	5	-1	-131.622803	55.595482	Loring
914	Alaska	Revillagigedo	United States	6	431	-131.592159	55.324617	Saxman
915	Alaska	Annette Island	United States	5	-1	-131.589203	55.26701	China Town
916	Alaska	Annette Island	United States	6	86	-131.585763	55.042123	Annette
917	Alaska	Annette Island	United States	5	1375	-131.578598	55.120201	Metlakatla
918	Alaska	Bell Island	United States	5	-1	-131.568893	55.927151	Bell Island Hot Springs
919	Alaska	Revillagigedo	United States	6	-1	-131.56639	55.30694	Dairy
920	Alaska	Revillagigedo	United States	6	-1	-131.5325	55.29444	Mountain Point
921	Alaska	Revillagigedo	United States	6	-1	-131.52222	55.325	Herring Cove
922	Alaska	Revillagigedo	United States	6	-1	-131.472826	55.381289	Beaver Falls
923	British Columbia	Moresby Island	Canada	5	-1	-131.216202	52.2994	Jedway
924	British Columbia	Kunghit Island	Canada	5	-1	-131.082901	52.146992	Rose Harbour
925	British Columbia	Porcher Island	Canada	6	-1	-130.60095	54.016335	Refuge Bay
926	British Columbia	Porcher Island	Canada	5	-1	-130.456604	54.068279	Hunts Inlet
927	British Columbia	 	Canada	5	-1	-130.443802	54.336979	Metlakatla
928	British Columbia	 	Canada	5	-1	-130.430786	54.553753	Lax Kwalaams
929	British Columbia	Porcher Island	Canada	5	-1	-130.398605	54.084961	Porcher Island
930	British Columbia	 	Canada	5	-1	-130.398407	54.472	Georgetown Mills
931	British Columbia	 	Canada	2	14511	-130.310882	54.306145	Prince Rupert
932	British Columbia	Porcher Island	Canada	5	-1	-130.246094	53.94685	Oona River
933	British Columbia	 	Canada	5	-1	-130.210525	54.226895	Port Edward
934	British Columbia	 	Canada	5	-1	-130.158997	54.147362	Osland
935	 	 	Pitcairn Islands	1	45	-130.102707	-25.066219	Adamstown
936	Alaska	 	United States	5	-1	-130.021304	55.914156	Stewart
937	British Columbia	 	Canada	5	-1	-130.013504	54.182709	Haysport
938	British Columbia	 	Canada	5	-1	-130.012894	54.96735	Arrandale
939	British Columbia	 	Canada	6	-1	-129.979664	55.953107	Stewart
940	British Columbia	 	Canada	5	-1	-129.959305	54.15136	Port Essington
941	British Columbia	 	Canada	5	-1	-129.957901	54.99548	Kincolith
942	British Columbia	 	Canada	6	-1	-129.933333	54.933333	Nass Harbour
943	British Columbia	 	Canada	5	-1	-129.899597	54.994759	Mill Bay
944	British Columbia	 	Canada	6	-1	-129.832665	54.24978	Skeena
945	British Columbia	 	Canada	5	-1	-129.829605	55.415909	Anyox
946	British Columbia	 	Canada	5	-1	-129.578598	55.02787	Greenville
947	British Columbia	 	Canada	5	-1	-129.489105	55.48077	Alice Arm
948	British Columbia	 	Canada	6	-1	-129.266237	53.432961	Hartley Bay
949	British Columbia	 	Canada	6	-1	-129.219843	55.193717	Gitwinksihlkw
950	Northwest Territories	 	Canada	5	-1	-128.952896	69.707947	Anderson River
951	British Columbia	Princess Royal Island	Canada	6	-1	-128.899317	53.033673	Port Belmont
952	British Columbia	Princess Royal Island	Canada	6	-1	-128.683734	53.149306	Butedale
953	British Columbia	 	Canada	3	10100	-128.643659	54.053973	Kitimat
954	British Columbia	 	Canada	5	-1	-128.642899	53.962601	Kitamaat Village
955	British Columbia	Swindle Island	Canada	6	-1	-128.533662	52.582549	China Hat
956	British Columbia	 	Canada	5	-1	-128.478699	53.841648	Kildala Arm
957	British Columbia	Vancouver Island	Canada	6	-1	-128.26685	50.682523	San Josef Bay
958	British Columbia	Campbell Island	Canada	5	-1	-128.144224	52.158431	Campbell Island
959	British Columbia	Campbell Island	Canada	5	-1	-128.142792	52.16331	Bella Bella
960	British Columbia	Vancouver Island	Canada	5	-1	-128.030098	50.527252	Winter Harbour
961	British Columbia	Vancouver Island	Canada	5	-1	-128.006607	50.659679	Holberg
962	British Columbia	 	Canada	5	-1	-127.948799	50.917622	Bull Harbour
963	British Columbia	 	Canada	6	-1	-127.867198	51.867347	Namu
964	British Columbia	Vancouver Island	Canada	6	-1	-127.84893	50.850196	Shushartie
965	British Columbia	Vancouver Island	Canada	5	-1	-127.796898	50.4561	Mahatta River
966	British Columbia	 	Canada	6	-1	-127.70015	52.353079	Ocean Falls
967	British Columbia	 	Canada	5	-1	-127.6521	51.37616	Goose Bay
968	British Columbia	Vancouver Island	Canada	5	-1	-127.61386	50.538894	Quatsino
969	British Columbia	Vancouver Island	Canada	5	-1	-127.57834	50.600742	Coal Harbour
970	British Columbia	 	Canada	5	-1	-127.517899	51.507992	Wadhams
971	British Columbia	Vancouver Island	Canada	5	-1	-127.492897	50.440578	Jeune Landing
972	British Columbia	 	Canada	5	-1	-127.489197	51.33292	Margaret Bay
973	British Columbia	Vancouver Island	Canada	5	-1	-127.473143	50.411429	Port Alice
974	British Columbia	Vancouver Island	Canada	3	4600	-127.467732	50.703419	Port Hardy
975	British Columbia	Vancouver Island	Canada	5	-1	-127.394402	50.692131	Fort Rupert
976	British Columbia	Vancouver Island	Canada	5	-1	-127.285103	50.066799	Chamiss Bay
977	British Columbia	 	Canada	6	-1	-127.282949	50.917385	Port Progress
978	British Columbia	 	Canada	5	-1	-127.260101	51.685341	Rivers Inlet
979	British Columbia	Vancouver Island	Canada	6	-1	-127.250358	50.633421	Suquash
980	British Columbia	Vancouver Island	Canada	6	-1	-127.150928	49.982727	Cachalot
981	British Columbia	Vancouver Island	Canada	5	-1	-127.095901	50.584721	Port McNeill
982	British Columbia	Malcolm Island	Canada	5	-1	-127.015503	50.631809	Sointula
983	British Columbia	Nootka Island	Canada	5	-1	-126.966127	49.802533	Nuchatlitz
984	British Columbia	 	Canada	5	-1	-126.923401	50.587879	Alert Bay
985	British Columbia	Vancouver Island	Canada	5	-1	-126.874901	50.54702	Englewood
986	British Columbia	Vancouver Island	Canada	5	-1	-126.859398	50.525951	Kokish
987	British Columbia	Vancouver Island	Canada	6	-1	-126.844402	50.537763	Telegraph Cove
988	British Columbia	Vancouver Island	Canada	5	-1	-126.843263	49.985476	Zeballos
989	British Columbia	North Broughton Island	Canada	5	-1	-126.817596	50.88063	Sullivan Bay
990	British Columbia	 	Canada	5	-1	-126.759201	52.36739	Bella Coola
991	British Columbia	Nootka Island	Canada	5	-1	-126.746101	49.850769	Hecate
992	British Columbia	Vancouver Island	Canada	5	-1	-126.712303	49.877731	Ceepeecee
993	British Columbia	Swanson Island	Canada	5	-1	-126.702003	50.607029	Freshwater Bay
994	British Columbia	Vancouver Island	Canada	5	-1	-126.661331	49.923432	Tahsis
995	British Columbia	Nootka Island	Canada	5	-1	-126.627502	49.626339	Nootka
996	British Columbia	Village Island	Canada	5	-1	-126.575401	50.615768	Mamalilaculla
997	British Columbia	 	Canada	5	-1	-126.531117	52.386715	Hagensborg
998	British Columbia	Gilford Island	Canada	5	-1	-126.484299	50.75705	Simoon Sound
999	British Columbia	Vancouver Island	Canada	5	-1	-126.469578	49.390236	Hesquiat
1000	British Columbia	Vancouver Island	Canada	5	-1	-126.427299	49.47752	Boat Basin
1001	British Columbia	Cracroft Island	Canada	5	-1	-126.392601	50.530819	Cracroft
1002	British Columbia	 	Canada	5	-1	-126.314905	50.613645	Minstrel Island
1003	British Columbia	 	Canada	5	-1	-126.296997	52.44323	Firvale
1004	British Columbia	Vancouver Island	Canada	5	-1	-126.261803	49.356449	Hot Springs Cove
1005	British Columbia	 	Canada	5	-1	-126.177597	50.974838	Kingcome
1006	British Columbia	Flores Island	Canada	5	-1	-126.080498	49.282261	Ahousat
1007	British Columbia	 	Canada	5	-1	-126.0793	50.490978	Port Neville
1008	British Columbia	Flores Island	Canada	5	-1	-126.055199	49.27618	Marktosis
1009	British Columbia	 	Canada	5	-1	-125.971497	49.173538	Yarksis
1010	British Columbia	Vancouver Island	Canada	5	-1	-125.962402	50.395672	Kelsey Bay
1011	British Columbia	Vancouver Island	Canada	5	-1	-125.949866	50.376236	Sayward
1012	British Columbia	 	Canada	5	-1	-125.944771	49.141061	Clayoquot
1013	British Columbia	Vancouver Island	Canada	5	-1	-125.9282	50.385288	Hkusam
1014	British Columbia	Hardwicke Island	Canada	5	-1	-125.914902	50.418968	Hardwicke Island
1015	British Columbia	 	Canada	5	-1	-125.911201	49.188251	Kakawis
1016	British Columbia	 	Canada	5	-1	-125.908302	49.176449	Opitsat
1017	British Columbia	Vancouver Island	Canada	5	-1	-125.892474	49.133038	Tofino
1018	British Columbia	Vancouver Island	Canada	5	-1	-125.752701	49.071522	Long Beach
1019	British Columbia	 	Canada	5	-1	-125.748802	50.512989	Jackson Bay
1020	British Columbia	 	Canada	5	-1	-125.717102	50.675388	Glendale Cove
1021	British Columbia	Vancouver Island	Canada	5	1565	-125.5494	48.939892	Ucluelet
1022	British Columbia	Vancouver Island	Canada	5	-1	-125.538803	48.954922	Port Albion
1023	British Columbia	 	Canada	5	-1	-125.537102	50.516331	Roy
1024	British Columbia	West Thurlow Island	Canada	5	-1	-125.504501	50.41304	Blind Channel
1025	British Columbia	Vancouver Island	Canada	5	-1	-125.486	50.333988	Rock Bay
1026	British Columbia	Vancouver Island	Canada	5	-1	-125.4431	50.28059	Elk Bay
1027	British Columbia	Vancouver Island	Canada	5	-1	-125.381493	50.116791	Bloedel
1028	British Columbia	East Thurlow Island	Canada	5	-1	-125.364601	50.455551	Thurlow
1029	British Columbia	Quadra Island	Canada	5	-1	-125.307709	50.234879	Granite Bay
1030	British Columbia	Vancouver Island	Canada	5	-1	-125.279698	50.072303	Duncan Bay
1031	British Columbia	Vancouver Island	Canada	5	-1	-125.257401	48.95842	Equis Beach
1032	British Columbia	Vancouver Island	Canada	5	33412	-125.253764	50.001791	Campbell River
1033	Northwest Territories	Banks Island	Canada	5	-1	-125.231003	71.986076	Sachs Harbour
1034	British Columbia	Quadra Island	Canada	5	-1	-125.210701	50.045582	Quathiaski Cove
1035	British Columbia	Sonora Island	Canada	5	-1	-125.206902	50.312691	Owen Bay
1036	British Columbia	Quadra Island	Canada	5	-1	-125.160103	50.17395	Bold Point
1037	British Columbia	Stuart Island	Canada	5	-1	-125.137001	50.364948	Stuart Island
1038	British Columbia	Vancouver Island	Canada	5	-1	-125.134102	49.839069	Black Creek
1039	British Columbia	Vancouver Island	Canada	5	-1	-125.126307	48.816195	Bamfield
1040	British Columbia	Read Island	Canada	5	-1	-125.109901	50.22366	Surge Narrows
1041	British Columbia	Vancouver Island	Canada	5	-1	-125.09789	48.727356	Pachena Beach
1042	British Columbia	Read Island	Canada	5	-1	-125.087601	50.181702	Read Island
1043	British Columbia	Vancouver Island	Canada	6	-1	-125.048721	49.78089	Merville
1044	British Columbia	Cortes Island	Canada	5	-1	-125.041467	50.110238	Whaletown
1045	British Columbia	Vancouver Island	Canada	5	-1	-125.034203	48.882542	Sarita
1046	British Columbia	Vancouver Island	Canada	6	-1	-125.000565	49.017476	Kildonan
1047	British Columbia	Vancouver Island	Canada	4	32315	-124.987288	49.691386	Courtenay
1048	British Columbia	Cortes Island	Canada	5	-1	-124.976592	50.070798	Mansons Landing
1049	British Columbia	Vancouver Island	Canada	5	-1	-124.951401	49.64959	Comuck
1050	British Columbia	West Redonda Island	Canada	5	-1	-124.949097	50.260029	Redonda Bay
1051	British Columbia	Cortes Island	Canada	5	-1	-124.928902	50.06076	Cortes Bay
1052	British Columbia	Vancouver Island	Canada	3	13422	-124.922413	49.688769	Comox
1053	British Columbia	Cortes Island	Canada	5	-1	-124.897598	50.090099	Seaford
1054	British Columbia	Vancouver Island	Canada	5	-1	-124.891197	49.584381	Union Bay
1055	British Columbia	West Redonda Island	Canada	5	-1	-124.836197	50.121281	Refuge Cove
1056	British Columbia	Vancouver Island	Canada	5	-1	-124.831902	49.509491	Fanny Bay
1057	British Columbia	Vancouver Island	Canada	5	-1	-124.823502	48.668221	Clo-oose
1058	British Columbia	 	Canada	5	-1	-124.814201	50.039219	Bliss Landing
1059	British Columbia	Vancouver Island	Canada	3	20907	-124.806905	49.250359	Port Alberni
1060	British Columbia	Vancouver Island	Canada	6	-1	-124.8	49.266667	Alberni
1061	British Columbia	Denman Island	Canada	5	-1	-124.789662	49.535888	Denman Island
1062	British Columbia	 	Canada	5	-1	-124.758862	49.986824	Lund
1063	British Columbia	 	Canada	5	-1	-124.693802	50.062119	Theodosia Arm
1064	British Columbia	Vancouver Island	Canada	5	-1	-124.691633	49.443142	Bowser
1065	Washington	 	United States	6	-1	-124.67556	48.38667	Classet
1066	Northwest Territories	 	Canada	6	-1	-124.667261	70.167099	Cape Parry
1067	Washington	 	United States	6	-1	-124.66722	48.34694	Waatch
1068	British Columbia	 	Canada	5	-1	-124.662102	50.437778	Brem River
1069	British Columbia	 	Canada	5	-1	-124.636497	50.300091	Homfray Creek
1070	Washington	 	United States	6	794	-124.623497	48.36232	Neah Bay
1071	British Columbia	Texada Island	Canada	5	-1	-124.622412	49.792102	Blubber Bay
1072	Washington	 	United States	5	-1	-124.615501	47.903679	La Push
1073	British Columbia	Vancouver Island	Canada	5	-1	-124.608101	49.391201	Dunsmuir
1074	British Columbia	Texada Island	Canada	5	-1	-124.559689	49.757574	Vananda
1075	British Columbia	 	Canada	4	12709	-124.527054	49.851678	Powell River
1076	British Columbia	 	Canada	4	-1	-124.517473	49.855911	Westview
1077	British Columbia	Vancouver Island	Canada	5	-1	-124.514126	49.364647	Dashwood
1078	British Columbia	Texada Island	Canada	5	-1	-124.4963	49.678509	Gillies Bay
1079	Oregon	 	United States	6	1153	-124.484299	42.752289	Port Orford
1080	British Columbia	Vancouver Island	Canada	5	6877	-124.438993	49.350712	Qualicum Beach
1081	Washington	 	United States	6	-1	-124.42417	47.75056	Oil City
1082	Oregon	 	United States	6	-1	-124.41667	42.3875	Hunter Creek
1083	Oregon	 	United States	6	-1	-124.41389	43.00833	Fourmile
1084	Oregon	 	United States	6	-1	-124.41306	43.04	Dew Valley
1085	Oregon	 	United States	4	-1	-124.412222	42.506389	Nesika Beach
1086	Oregon	 	United States	6	1897	-124.403	42.440472	Gold Beach
1087	Oregon	 	United States	5	2833	-124.401604	43.125259	Bandon
1088	British Columbia	Vancouver Island	Canada	5	-1	-124.400497	48.559349	Port Renfrew
1089	Oregon	 	United States	6	-1	-124.39444	43.15	Bullards
1090	Oregon	 	United States	5	-1	-124.384201	42.287048	Pistol River
1091	Oregon	 	United States	5	-1	-124.370903	42.569901	Ophir
1092	California	 	United States	5	-1	-124.357399	40.472012	Capetown
1093	Washington	 	United States	5	-1	-124.354401	47.603352	Kalaloch
1094	British Columbia	Lasqueti Island	Canada	5	-1	-124.344101	49.490021	Lasqueti
1095	Oregon	 	United States	4	-1	-124.338333	42.220278	Carpenterville
1096	Washington	 	United States	6	-1	-124.33111	47.53972	Queets
1097	Oregon	 	United States	4	-1	-124.328889	43.340278	Charleston
1098	British Columbia	Vancouver Island	Canada	3	21019	-124.318331	49.321219	Parksville
1099	Oregon	 	United States	6	1872	-124.307957	43.347613	Barview
1100	Washington	 	United States	5	-1	-124.302597	48.261608	Clallam Bay
1101	British Columbia	 	Canada	5	-1	-124.302498	49.77285	Stillwater
1102	Oregon	 	United States	5	5447	-124.286598	42.057678	Brookings
1103	California	 	United States	6	-1	-124.28328	40.596264	Port Kenyon
1104	Washington	 	United States	6	824	-124.281998	47.342991	Taholah
1105	Washington	 	United States	5	-1	-124.259201	48.253792	Sekiu
1106	Oregon	 	United States	6	2622	-124.254667	42.039141	Harbor
1107	California	 	United States	6	-1	-124.24778	40.695	Southport Landing
1108	British Columbia	 	Canada	5	-1	-124.227286	49.786659	Saltery Bay
1109	Oregon	 	United States	4	-1	-124.2175	43.493056	Hauser
1110	Oregon	 	United States	6	-1	-124.21528	43.525	Saunders Lake
1111	California	 	United States	5	4028	-124.214092	41.763674	Crescent City North
1112	California	 	United States	4	-1	-124.213889	40.724722	Fields Landing
1113	Washington	 	United States	6	615	-124.211667	47.236389	Moclips
1114	California	 	United States	5	4006	-124.203005	41.752318	Crescent City
1115	California	 	United States	6	-1	-124.20028	41.85556	Pacific Shores
1116	California	 	United States	6	-1	-124.200066	40.788067	Fairhaven
1117	California	 	United States	6	-1	-124.198799	40.743732	Spruce Point
1118	California	 	United States	6	-1	-124.19778	41.90778	Yontocket
1119	British Columbia	Vancouver Island	Canada	5	-1	-124.197098	49.263512	Nanoose
1120	Washington	 	United States	5	-1	-124.191803	47.208481	Pacific Beach
1121	Washington	 	United States	6	-1	-124.18722	47.15972	Iron Springs
1122	California	 	United States	4	-1	-124.185278	40.818889	Samoa
1123	Oregon	 	United States	5	1371	-124.1819	43.585491	Lakeside
1124	British Columbia	Vancouver Island	Canada	6	-1	-124.181392	49.285999	Nanoose Bay
1125	California	 	United States	6	2359	-124.175941	40.764984	Bayview
1126	Oregon	 	United States	6	488	-124.173611	43.677222	Winchester Bay
1127	Washington	 	United States	6	489	-124.1725	47.112778	Copalis Beach
1128	California	 	United States	6	-1	-124.165718	40.848038	Manila
1129	Washington	 	United States	6	217	-124.164722	47.071111	Ocean City
1130	Washington	 	United States	6	-1	-124.16389	47.04194	Sampson
1131	Washington	 	United States	6	-1	-124.16056	47.0175	Oyhut
1132	California	 	United States	6	-1	-124.15556	41.12361	Patricks Point
1133	Washington	 	United States	6	3836	-124.152344	46.971075	Ocean Shores
1134	California	 	United States	6	-1	-124.132874	41.160927	Big Lagoon
1135	Oregon	 	United States	6	-1	-124.13	44.03361	Heceta Beach
1136	California	 	United States	6	311	-124.128197	41.072529	Trinidad
1137	California	 	United States	6	-1	-124.12556	40.9225	Tyee City
1138	California	 	United States	5	13599	-124.115608	40.953314	McKinleyville
1139	Washington	 	United States	6	2137	-124.110985	46.891965	Westport
1140	California	 	United States	6	-1	-124.11083	40.99472	Clam Beach
1141	Washington	 	United States	5	-1	-124.109802	48.197769	Pysht
1142	California	 	United States	6	-1	-124.10907	41.035889	Westhaven
1143	Oregon	 	United States	6	-1	-124.10722	44.2325	Searose Beach
1144	Washington	 	United States	6	-1	-124.10528	46.87278	Cohassett
1145	Oregon	 	United States	5	7263	-124.103108	43.986388	Florence
1146	Oregon	 	United States	6	-1	-124.10278	43.96056	Glenada
1147	California	 	United States	6	-1	-124.09917	40.93639	Calville
1148	Oregon	 	United States	6	617	-124.096001	44.313969	Yachats
1149	Oregon	 	United States	6	-1	-124.09278	44.35389	San Marine
1150	Washington	 	United States	5	1002	-124.091944	46.810278	Grayland
1151	British Columbia	Vancouver Island	Canada	5	-1	-124.090876	49.249588	Lantzville Bay
1152	Oregon	 	United States	6	-1	-124.0875	44.38806	Wakonda Beach
1153	California	 	United States	4	-1	-124.083611	41.011944	Crannell
1154	Oregon	 	United States	4	-1	-124.082778	44.499167	Seal Rock
1155	Washington	 	United States	6	-1	-124.07972	46.77167	Heather
1156	Oregon	 	United States	6	-1	-124.07361	44.43889	Bayshore
1157	Northwest Territories	 	Canada	5	-1	-124.0718	69.35421	Paulatuk
1158	California	 	United States	6	-1	-124.06958	40.023243	Shelter Cove
1159	Oregon	 	United States	6	-1	-124.06667	44.55278	Forfar
1160	Washington	 	United States	5	-1	-124.065498	46.726139	North Cove
1161	California	 	United States	4	-1	-124.065278	41.546944	Requa
1162	Oregon	 	United States	5	2050	-124.0644	44.49781	Waldport
1163	Oregon	 	United States	4	-1	-124.060556	44.6775	Agate Beach
1164	Oregon	 	United States	6	1174	-124.058252	44.810147	Depoe Bay
1165	Washington	 	United States	6	-1	-124.05806	46.86472	Bay City
1166	California	 	United States	5	-1	-124.057701	41.291729	Orick
1167	Oregon	 	United States	6	-1	-124.05639	44.72056	Beverly Beach
1168	British Columbia	 	Canada	5	-1	-124.055702	49.640999	Irvines Landing
1169	Oregon	 	United States	5	-1	-124.054703	44.747589	Yaquina Hd
1170	Washington	 	United States	6	-1	-124.05417	47.08139	Newton
1171	Washington	 	United States	5	1283	-124.054085	46.371874	Long Beach
1172	Washington	 	United States	6	-1	-124.05361	46.32667	Holman
1173	Washington	 	United States	6	-1	-124.05278	46.28361	Fort Canby
1174	Washington	 	United States	6	-1	-124.05167	46.46667	Klipsan Beach
1175	Washington	 	United States	6	-1	-124.05111	46.40861	Oceanside
1176	British Columbia	Vancouver Island	Canada	5	-1	-124.050598	48.43071	River Jordan
1177	Oregon	 	United States	6	-1	-124.04944	44.84444	Pacific Palisades
1178	Oregon	 	United States	4	-1	-124.0475	44.612778	Southbeach
1179	Washington	 	United States	6	1459	-124.04318	46.495745	Ocean Park
1180	Washington	 	United States	6	-1	-124.04	46.34611	Moores Corner
1181	Oregon	 	United States	5	9532	-124.038696	44.64336	Newport
1182	Washington	 	United States	5	-1	-124.037498	46.57383	Oysterville
1183	Washington	 	United States	6	-1	-124.03722	46.88889	Ocosta
1184	Washington	 	United States	6	-1	-124.03583	47.05667	Burrows
1185	Washington	 	United States	6	950	-124.032501	46.31031	Ilwaco
1186	Oregon	 	United States	6	-1	-124.0325	44.89167	Salishan
1187	Oregon	 	United States	6	2078	-124.028465	44.873899	Lincoln Beach
1188	California	 	United States	6	651	-124.0215	41.53421	Klamath
1189	Washington	 	United States	6	-1	-124.0125	46.72139	Dexter by the Sea
1190	Oregon	 	United States	5	7437	-124.008598	44.9646	Lincoln City
1191	Washington	 	United States	6	-1	-124.00806	47.01361	Gray Gables
1192	Oregon	 	United States	6	-1	-124.00583	45.00639	Roads End
1193	Oregon	 	United States	6	-1	-124.00333	44.89944	Kernville
1194	Oregon	 	United States	6	-1	-123.99806	45.04472	Three Rocks
1195	Washington	 	United States	6	95	-123.989601	46.896729	Markham
1196	Oregon	 	United States	6	169	-123.98306	45.10694	Neskowin
1197	British Columbia	Vancouver Island	Canada	3	84600	-123.981752	49.190933	Nanaimo
1198	Washington	 	United States	6	194	-123.980556	46.706667	Tokeland
1199	Oregon	 	United States	6	-1	-123.98	45.00139	Neotsu
1200	Washington	 	United States	6	-1	-123.9775	46.30639	Stringtown
1201	Oregon	 	United States	6	326	-123.96667	45.46111	Oceanside
1202	Oregon	 	United States	6	-1	-123.96333	45.25222	Tierra Del Mar
1203	Oregon	 	United States	5	1588	-123.9627	45.87521	Cannon Beach
1204	Oregon	 	United States	5	-1	-123.961998	45.808239	Arch Cape
1205	Oregon	 	United States	5	1027	-123.961667	45.2025	Pacific City
1206	Oregon	 	United States	6	110	-123.9575	45.49	Cape Meares
1207	Washington	 	United States	6	174	-123.955438	46.628626	Bay Center
1208	Oregon	 	United States	6	-1	-123.95417	45.15389	Oretown
1209	Washington	 	United States	6	-1	-123.953503	46.732267	Venice
1210	Washington	 	United States	6	-1	-123.952324	48.159301	Twin
1211	Oregon	 	United States	6	1178	-123.946757	46.198146	Hammond
1212	Oregon	 	United States	6	744	-123.944722	45.435	Netarts
1213	Washington	 	United States	6	457	-123.944167	46.273056	Chinook
1214	Oregon	 	United States	6	-1	-123.94222	45.57	Barview
1215	Oregon	 	United States	6	-1	-123.94028	45.63056	Manhattan Beach
1216	Oregon	 	United States	5	-1	-123.934303	45.606972	Rockaway
1217	Oregon	 	United States	6	564	-123.933576	45.717293	Manzanita
1218	British Columbia	Vancouver Island	Canada	4	-1	-123.923798	49.125671	Colvilletown
1219	Oregon	 	United States	6	-1	-123.92222	46.05833	Surf Pines
1220	Oregon	 	United States	6	-1	-123.92167	45.6725	Brighton
1221	Oregon	 	United States	6	995	-123.917472	46.024986	Gearhart
1222	Oregon	 	United States	5	5900	-123.917099	45.982491	Seaside
1223	Oregon	 	United States	5	4096	-123.916	46.165878	Warrenton
1224	Oregon	 	United States	6	-1	-123.91583	46.10056	Carnahan
1225	Oregon	 	United States	6	899	-123.910223	45.560455	Garibaldi
1226	California	 	United States	6	-1	-123.91	39.88556	Wheeler
1227	British Columbia	 	Canada	5	-1	-123.90622	49.514139	Halfmoon Bay
1228	Washington	 	United States	6	-1	-123.90611	46.24639	McGowan
1229	Washington	 	United States	6	-1	-123.89889	46.67944	Bruceport
1230	California	 	United States	6	-1	-123.8975	39.92194	Kenny
1231	Washington	 	United States	4	-1	-123.884722	46.512222	Nemah
1232	Washington	 	United States	6	-1	-123.87972	47.00083	Woodlawn
1233	British Columbia	Vancouver Island	Canada	6	-1	-123.866667	49.066667	Cassidy
1234	Washington	 	United States	6	-1	-123.86417	46.97528	East Hoquiam
1235	Washington	 	United States	5	-1	-123.857002	46.25116	Megler
1236	Washington	 	United States	6	-1	-123.85639	48.14722	Shadow
1237	Oregon	 	United States	6	-1	-123.853767	46.148948	Jeffers Garden
1238	Oregon	 	United States	6	-1	-123.85278	46.18611	Uniontown
1239	British Columbia	Vancouver Island	Canada	6	-1	-123.85	49.133333	Harmac
1240	Washington	 	United States	3	9097	-123.838716	46.967745	Hoquiam
1241	British Columbia	Vancouver Island	Canada	3	8661	-123.821098	48.990429	Ladysmith
1242	California	 	United States	5	-1	-123.819298	39.742199	Rockport
1243	Oregon	 	United States	3	9813	-123.818806	46.19141	Astoria
1244	California	 	United States	4	-1	-123.814722	39.363611	Caspar
1245	Washington	 	United States	6	-1	-123.81361	46.27667	Knappton
1246	California	 	United States	6	-1	-123.803017	39.41935	Noyo
1247	California	 	United States	6	-1	-123.80194	39.7125	Hardy
1248	California	 	United States	5	7026	-123.801201	39.437809	Fort Bragg
1249	British Columbia	Gabriola Island	Canada	5	-1	-123.797088	49.164967	Gabriola
1250	California	 	United States	6	824	-123.795998	39.306881	Mendocino
1251	Washington	 	United States	3	16461	-123.793509	46.965323	Aberdeen
1252	California	 	United States	4	-1	-123.790278	39.274167	Little River
1253	California	 	United States	6	-1	-123.78389	39.66028	DeHaven
1254	California	 	United States	6	-1	-123.783768	39.490986	Cleone
1255	Washington	 	United States	5	1807	-123.782097	46.660172	South Bend
1256	California	 	United States	5	-1	-123.779503	39.634689	Westport
1257	Oregon	 	United States	6	-1	-123.77806	46.19	Navy Heights
1258	California	 	United States	6	-1	-123.77667	39.59028	Kibesillah
1259	Washington	 	United States	6	1595	-123.769849	46.955544	Cosmopolis
1260	Washington	 	United States	6	-1	-123.76917	48.13917	Disque
1261	California	 	United States	5	-1	-123.761497	39.21925	Albion
1262	British Columbia	 	Canada	5	5889	-123.760826	49.481513	Sechelt
1263	Washington	 	United States	6	-1	-123.75472	46.28056	Frankfort
1264	Oregon	 	United States	6	-1	-123.73583	46.16472	Fern Hill
1265	Washington	 	United States	6	-1	-123.732739	48.157721	Port Crescent
1266	Washington	 	United States	5	-1	-123.727097	48.135738	Joyce
1267	British Columbia	Vancouver Island	Canada	3	2700	-123.723801	48.926991	Chemainus
1268	British Columbia	Vancouver Island	Canada	5	6089	-123.714621	48.381264	Sooke
1269	British Columbia	 	Canada	5	-1	-123.714302	49.442902	Wilson Creek
1270	California	 	United States	5	-1	-123.7117	39.130939	Elk
1271	California	 	United States	6	-1	-123.70861	38.92944	Flumeville
1272	Washington	 	United States	5	2558	-123.70151	46.970578	Central Park
1273	California	 	United States	6	-1	-123.70139	38.94722	Stronetta
1274	British Columbia	Vancouver Island	Canada	5	-1	-123.697701	48.86924	Westholme
1275	California	 	United States	6	474	-123.689301	38.90847	Point Arena
1276	Washington	 	United States	5	-1	-123.687103	46.349651	Deep River
1277	California	 	United States	4	-1	-123.686944	38.970278	Manchester
1278	California	 	United States	6	-1	-123.6825	38.93556	Iverson Indian Rancheria
1279	Washington	 	United States	6	-1	-123.68167	48.12167	Ramapo
1280	Washington	 	United States	6	-1	-123.6775	46.31444	Oneida
1281	Oregon	 	United States	6	-1	-123.65806	46.17083	Svensen
1282	Washington	 	United States	4	-1	-123.655	46.266944	Altoona
1283	California	 	United States	6	-1	-123.65222	38.86917	Gallaway
1284	Washington	 	United States	6	-1	-123.65111	46.29861	Eden
1285	British Columbia	Vancouver Island	Canada	5	-1	-123.641967	48.863837	Crofton
1286	Washington	 	United States	6	-1	-123.62806	48.12694	Coville
1287	British Columbia	Vancouver Island	Canada	6	-1	-123.615132	48.735999	Cowichan Bay
1288	Washington	 	United States	6	-1	-123.61306	46.26139	Dahlia
1289	British Columbia	Vancouver Island	Canada	5	-1	-123.610901	48.814571	Maple Bay
1290	British Columbia	 	Canada	5	-1	-123.610783	49.416715	Roberts Creek
1291	Oregon	 	United States	4	-1	-123.584722	46.185278	Knappa
1292	California	 	United States	6	-1	-123.582756	38.803577	Anchor Bay
1293	British Columbia	Vancouver Island	Canada	6	-1	-123.567567	48.549612	Malahat
1294	Washington	 	United States	6	-1	-123.55944	46.265	Brookfield
1295	British Columbia	Vancouver Island	Canada	5	-1	-123.552116	48.370374	Metchosin
1296	Washington	 	United States	6	-1	-123.55139	48.14444	Lower Elwha
1297	Oregon	 	United States	6	-1	-123.53944	46.21778	Brownsmead
1298	California	 	United States	5	-1	-123.5233	38.763672	Gualala
1299	British Columbia	 	Canada	3	6754	-123.507822	49.403763	Gibsons
1300	British Columbia	Saltspring Island	Canada	5	-1	-123.502098	48.85247	Ganges
1301	British Columbia	Vancouver Island	Canada	5	-1	-123.491699	48.446449	Langford
1302	British Columbia	 	Canada	5	-1	-123.489197	49.524021	Port Mellon
1303	British Columbia	 	Canada	5	-1	-123.483398	49.431351	Hopkins Landing
1304	British Columbia	 	Canada	5	-1	-123.479531	49.43498	Granthams Landing
1305	British Columbia	Vancouver Island	Canada	6	-1	-123.457594	48.571211	Brentwood Bay
1306	Washington	 	United States	4	-1	-123.455833	46.270556	Skamokawa
1307	California	 	United States	6	-1	-123.45333	38.71528	Sea Ranch
1308	Washington	 	United States	5	18397	-123.441401	48.137619	Port Angeles
1309	British Columbia	Saltspring Island	Canada	5	-1	-123.436996	48.774681	Fulford
1310	Washington	 	United States	6	3053	-123.434898	48.114632	Port Angeles East
1311	California	 	United States	6	-1	-123.4125	38.69972	Valley Crossing
1312	British Columbia	Vancouver Island	Canada	6	-1	-123.411234	48.435842	Esquimalt
1313	British Columbia	Vancouver Island	Canada	3	11986	-123.403616	48.653272	Sidney
1314	California	 	United States	5	-1	-123.3983	38.651741	Stewarts Point
1315	Washington	 	United States	6	-1	-123.37194	48.10694	Mount Pleasant
1316	British Columbia	Vancouver Island	Canada	5	-1	-123.367897	48.52644	Cordova Bay
1317	British Columbia	Vancouver Island	Canada	2	286837	-123.343749	48.446694	Victoria
1318	British Columbia	Bowen Island	Canada	5	-1	-123.334602	49.37793	Bowen Island
1319	Washington	 	United States	6	-1	-123.31972	48.10694	Crane
1320	British Columbia	 	Canada	6	-1	-123.317037	49.883287	Upper Squamish
1321	British Columbia	Vancouver Island	Canada	6	-1	-123.311054	48.435226	Oak Bay
1322	California	 	United States	6	-1	-123.308396	38.588696	Plantation
1323	California	 	United States	6	-1	-123.301666	38.556194	Walsh Landing
1324	British Columbia	Mayne Island	Canada	6	-1	-123.286403	48.843921	Mayne
1325	Washington	 	United States	6	-1	-123.27361	48.09417	R Corner
1326	British Columbia	 	Canada	5	-1	-123.272202	49.371922	Horseshoe Bay
1327	British Columbia	 	Canada	5	-1	-123.263051	49.664887	Woodfibre
1328	California	 	United States	5	-1	-123.242599	38.517139	Fort Ross
1329	Washington	 	United States	5	-1	-123.2425	48.103329	Agnew
1330	British Columbia	 	Canada	5	1360	-123.235927	49.452117	Lions Bay
1331	California	 	United States	6	-1	-123.228851	38.54549	Seaview
1332	Washington	Stuart Island	United States	6	-1	-123.21	48.68417	Prevost
1333	British Columbia	 	Canada	5	-1	-123.2004	49.626536	Britannia Beach
1334	California	 	United States	6	-1	-123.17694	38.53083	Toners Place
1335	British Columbia	 	Canada	6	-1	-123.166667	49.333333	West Vancouver
1336	Washington	San Juan Island	United States	6	-1	-123.164197	48.58258	Yacht Haven
1337	Washington	 	United States	6	616	-123.15623	47.333558	Skokomish
1338	Washington	 	United States	6	-1	-123.15	48.15056	Old Town
1339	British Columbia	 	Canada	5	-1	-123.147326	49.768483	Brackendale
1340	British Columbia	 	Canada	5	12691	-123.141114	49.739287	Squamish
1341	Washington	 	United States	5	-1	-123.140723	47.405992	Hoodsport
1342	Washington	San Juan Island	United States	5	-1	-123.133003	48.612709	Roche Harbor
1343	British Columbia	 	Canada	4	-1	-123.130387	49.160212	Richmond
1344	Washington	 	United States	6	-1	-123.12972	47.11056	Forbes
1345	Washington	 	United States	4	-1	-123.113056	47.463611	Lilliwaup
1346	Washington	 	United States	5	-1	-123.111702	48.143002	Dungeness
1347	British Columbia	 	Canada	2	587891	-123.1088	49.248523	Vancouver
1348	California	 	United States	5	-1	-123.106697	38.451759	Jenner
1349	Washington	 	United States	4	-1	-123.099722	47.355278	Union
1350	California	 	United States	6	-1	-123.09972	38.43361	Bridgehaven
1351	Washington	 	United States	3	8442	-123.097298	47.207729	Shelton
1352	Washington	 	United States	6	-1	-123.09667	47.13056	Kamilche
1353	Washington	 	United States	5	-1	-123.089635	48.128644	Jamestown
1354	Washington	 	United States	6	731	-123.08361	48.05639	Bell Hill
1355	Washington	San Juan Island	United States	6	-1	-123.08278	48.5725	Lakedale
1356	Washington	 	United States	6	-1	-123.07667	48.98556	Point Roberts
1357	British Columbia	 	Canada	6	-1	-123.076502	49.018852	Tsawwassen
1358	California	 	United States	6	-1	-123.075836	38.37315	Carnet
1359	British Columbia	 	Canada	4	-1	-123.073008	49.092429	Ladner
1360	British Columbia	 	Canada	3	42781	-123.068237	49.319647	North Vancouver
1361	Washington	 	United States	6	-1	-123.065	47.22722	Oakland
1362	California	 	United States	6	-1	-123.062721	38.351227	Salmon Creek
1363	Washington	 	United States	6	-1	-123.05556	47.5075	Ayock
1364	Washington	 	United States	4	-1	-123.054444	47.371389	Tahuya
1365	Washington	 	United States	6	-1	-123.05	47.52694	Hamma Hamma
1366	Washington	 	United States	6	-1	-123.04917	48.9775	South Beach
1367	Washington	 	United States	6	-1	-123.046726	48.095441	Port Williams
1368	Washington	 	United States	6	-1	-123.045	47.24639	Bayshore
1369	Washington	 	United States	4	-1	-123.044722	47.545556	Eldon
1370	California	 	United States	6	1423	-123.043297	38.332062	Bodega Bay
1371	British Columbia	 	Canada	5	-1	-123.04314	49.008579	Boundary Bay
1372	Washington	Waldron island	United States	4	-1	-123.035556	48.687778	Waldron
1373	British Columbia	 	Canada	4	98238	-123.020555	49.12536	Delta
1374	Washington	 	United States	6	-1	-123.017684	47.071916	Madrona Beach
1375	Washington	San Juan Island	United States	5	1989	-123.014198	48.53228	Friday Harbor
1376	Washington	 	United States	6	162	-123.004402	48.01376	Blyn
1377	Washington	 	United States	6	-1	-122.99972	47.12917	Elizan Beach
1378	Washington	Orcase Island	United States	5	-1	-122.992104	48.624809	Deer Harbor
1379	Washington	 	United States	6	-1	-122.991025	47.08563	Sunrise Beach
1380	Washington	 	United States	6	-1	-122.98861	47.605	Triton
1381	Washington	 	United States	4	-1	-122.977222	47.557778	Holly
1382	British Columbia	 	Canada	3	194687	-122.973796	49.248869	Burnaby
1383	California	 	United States	6	319	-122.964167	38.250833	Dillon Beach
1384	Washington	 	United States	6	-1	-122.96389	47.10472	Gravelly Beach
1385	Washington	Orcase Island	United States	5	-1	-122.9506	48.634258	West Sound
1386	Washington	Orcase Island	United States	6	-1	-122.94944	48.69222	Beach Haven
1387	California	 	United States	6	-1	-122.949333	38.227829	Brazil Beach
1388	Washington	 	United States	6	-1	-122.940326	47.197896	Arcadia
1389	Washington	Orcase Island	United States	5	-1	-122.939796	48.60458	Orcas
1390	Washington	 	United States	6	-1	-122.93861	47.17972	Carlyon Beach
1391	Washington	 	United States	6	-1	-122.93667	47.24778	Graham Point
1392	British Columbia	 	Canada	6	-1	-122.933333	49.283333	Barnet
1393	Washington	 	United States	6	-1	-122.931586	47.151601	Edgewater Beach
1394	Washington	 	United States	6	-1	-122.925951	48.58264	Shaw Island
1395	Washington	 	United States	6	-1	-122.925342	47.283318	Walkers Landing
1396	California	 	United States	6	-1	-122.923075	38.208367	Hamlet
1397	California	 	United States	6	-1	-122.918914	38.1995	Nicks Cove
1398	British Columbia	 	Canada	4	50263	-122.917209	49.210086	New Westminster
1399	California	 	United States	6	-1	-122.91139	38.15944	Lairds Landing
1400	Washington	 	United States	5	-1	-122.910202	48.051842	Gardiner
1401	Washington	Orcase Island	United States	6	-1	-122.90806	48.65167	Dolphin
1402	Washington	Lopez Island	United States	5	-1	-122.903801	48.526611	Lopez
1403	Washington	Orcase Island	United States	5	-1	-122.902901	48.699242	East Sound
1404	Washington	 	United States	4	-1	-122.899722	47.138611	Boston Harbor
1405	Washington	 	United States	6	803	-122.898056	47.680556	Brinnon
1406	Washington	Lopez Island	United States	5	-1	-122.895699	48.455441	Richardson
1407	Washington	 	United States	6	-1	-122.885691	47.7141	Seal Rock
1408	Washington	 	United States	3	42514	-122.883892	47.043022	Olympia
1409	British Columbia	 	Canada	6	-1	-122.882779	49.303337	Ioco
1410	Washington	 	United States	6	-1	-122.8825	47.99778	Maynard
1411	Washington	 	United States	6	-1	-122.88139	47.10278	North Olympia
1412	Washington	 	United States	6	591	-122.880501	47.817749	Quilcene
1413	Washington	Orcase Island	United States	4	-1	-122.874722	48.648889	Rosario
1414	Washington	Lopez Island	United States	6	-1	-122.87056	48.54056	Port Stanley
1415	Washington	Orcase Island	United States	6	-1	-122.868974	48.704571	Buckhorn
1416	Washington	Hartstene Island	United States	6	-1	-122.867276	47.239788	Ballow
1417	Washington	 	United States	6	-1	-122.86722	47.41861	Rose Point
1418	Washington	 	United States	6	-1	-122.86472	47.58222	Crosby
1419	Washington	 	United States	5	-1	-122.861504	47.98373	Discovery Bay
1420	Washington	 	United States	6	-1	-122.86056	48.01556	Port Discovery
1421	Washington	Lopez Island	United States	6	-1	-122.85639	48.44639	Islandale
1422	Washington	 	United States	6	-1	-122.85472	47.7625	Bees Mill
1423	Washington	 	United States	6	-1	-122.85083	47.82694	East Quilcene
1424	British Columbia	 	Canada	4	21621	-122.847318	49.288989	Port Moody
1425	Washington	 	United States	6	-1	-122.84472	47.08056	South Bay
1426	British Columbia	 	Canada	5	-1	-122.840401	49.130981	Alluvia
1427	Washington	Orcase Island	United States	5	-1	-122.834503	48.624779	Olga
1428	Washington	 	United States	6	-1	-122.833889	47.331944	Grapeview
1429	Washington	 	United States	6	-1	-122.830568	48.01373	Woodmans
1430	Washington	 	United States	6	-1	-122.82778	48.04944	Adelma Beach
1431	Washington	 	United States	6	-1	-122.827427	47.386008	Allyn
1432	Washington	 	United States	4	-1	-122.827222	47.639722	Seabeck
1433	Washington	 	United States	4	-1	-122.826111	47.450833	Belfair
1434	British Columbia	 	Canada	3	314782	-122.823134	49.186495	Surrey
1435	Washington	Blakely Island	United States	6	-1	-122.8175	48.555	Thatcher
1436	Washington	Center Island	United States	6	-1	-122.816959	48.501159	Decatur
1437	Washington	 	United States	6	-1	-122.812213	47.273949	Herron
1438	British Columbia	 	Canada	3	103993	-122.807716	49.272229	Coquitlam
1439	Washington	 	United States	6	-1	-122.80472	48.09194	Glen Cove
1440	Washington	 	United States	6	-1	-122.80417	47.69806	Coyle
1441	British Columbia	 	Canada	3	66397	-122.803643	49.022034	White Rock
1442	Washington	 	United States	6	-1	-122.80306	47.84722	Dabob
1443	Washington	 	United States	6	-1	-122.7925	47.14667	Puget
1444	Washington	 	United States	6	-1	-122.7925	47.81139	Camp Discovery
1445	Washington	 	United States	5	8334	-122.77918	48.122031	Port Townsend
1446	Washington	Orcase Island	United States	5	-1	-122.778297	48.645939	Doebay
1447	Washington	 	United States	6	-1	-122.77694	47.65917	Lawters Beach
1448	Washington	 	United States	6	-1	-122.775598	48.987068	Semiahmoo
1449	Washington	 	United States	5	-1	-122.768898	48.04216	Irondale
1450	British Columbia	 	Canada	5	47629	-122.768539	49.254556	Port Coquitlam
1451	Washington	 	United States	4	-1	-122.7675	48.011111	Chimacum
1452	Washington	 	United States	4	-1	-122.765556	47.276944	Home
1453	Washington	 	United States	4	-1	-122.761944	47.344444	Vaughn
1454	Washington	 	United States	6	2742	-122.761597	48.011021	Hadlock-Irondale
1455	Washington	 	United States	4	-1	-122.757222	47.257222	Lakebay
1456	Washington	 	United States	4	-1	-122.756944	48.031944	Hadlock
1457	Washington	 	United States	4	-1	-122.756743	47.202987	Longbranch
1458	Washington	 	United States	6	4961	-122.756291	48.943802	Birch Bay
1459	Washington	 	United States	5	-1	-122.752602	48.027248	Nordland
1460	Washington	 	United States	6	-1	-122.7475	47.10833	Beachcrest
1461	Washington	 	United States	6	-1	-122.74722	47.665	Sunset Farm
1462	Washington	 	United States	4	-1	-122.744722	47.721111	Bangor
1463	Washington	 	United States	6	3770	-122.739601	48.991779	Blaine
1464	Washington	 	United States	4	-1	-122.739167	47.694167	Olympic View
1465	Washington	 	United States	6	-1	-122.732156	48.954262	Hillsdale
1466	Washington	 	United States	6	-1	-122.73056	47.35444	Sunshine Beach
1467	Washington	 	United States	4	-1	-122.728889	47.926111	Beaver Valley
1468	Washington	 	United States	4	-1	-122.727778	47.504722	Sunnyslope
1469	Washington	Whidbey Island	United States	4	-1	-122.721944	48.235278	San de Fuca
1470	Washington	McNeil Island	United States	6	-1	-122.71667	47.20972	Meridian
1471	Washington	 	United States	5	7253	-122.716106	47.692017	Bangor Trident Base
1472	Washington	Whidbey Island	United States	6	-1	-122.71167	48.30528	Swantown
